,Route Number,Route Direction,Stops,City Name,Date,Stop Time 1,Stop Time 2,Stop Time 3,Stop Time 4,Stop Time 5,Stop Time 6,Stop Time 7,Stop Time 8,Stop Time 9,Stop Time 10,Stop Time 11,Stop Time 12,Stop Time 13,Stop Time 14,Stop Time 15,Stop Time 16,Stop Time 17,Stop Time 18,Stop Time 19,Stop Time 20,Stop Time 21,Stop Time 22,Stop Time 23,Stop Time 24,Stop Time 25,Stop Time 26,Stop Time 27,Stop Time 28,Stop Time 29,Stop Time 30,Stop Time 31,Stop Time 32,Stop Time 33,Stop Time 34,Stop Time 35,Stop Time 36,Stop Time 37,Stop Time 38,Stop Time 39,Stop Time 40,Stop Time 41,Stop Time 42,Stop Time 43,Stop Time 44,Stop Time 45,Stop Time 46,Stop Time 47,Stop Time 48,Stop Time 49,Stop Time 50,Stop Time 51,Stop Time 52,Stop Time 53,Stop Time 54,Stop Time 55,Stop Time 56,Stop Time 57,Stop Time 58,Stop Time 59,Stop Time 60,Stop Time 61,Stop Time 62,Stop Time 63,Stop Time 64,Stop Time 65,Stop Time 66,Stop Time 67,Stop Time 68,Stop Time 69,Stop Time 70,Stop Time 71,Stop Time 72,Stop Time 73,Stop Time 74,Stop Time 75,Stop Time 76,Stop Time 77,Stop Time 78,Stop Island,Time_Count,Stops - City Name - Stop Island,Longitude_Final,Latitude_Final,Bus_Stop_ID,Next_Bus_Stop_ID,Bus_Stop_Next_Bus_Stop
5559,117,Mater Dei - Mqabba,Sptar 3,Mater Dei,"Monday, Tuesday, Wednesday, Thursday, Friday",06:05,07:05,08:05,09:05,10:05,11:05,12:05,13:05,14:05,15:05,16:05,17:05,18:05,19:05,20:05,,,,,,,,,,,,,,,,,,,,,,,,,,,,,,,,,,,,,,,,,,,,,,,,,,,,,,,,,,,,,,,,MALTA STOP,15,Sptar 3 - Mater Dei - MALTA STOP,14.4754663,35.9017872,Stop_27,Stop_1029,Stop_27_to_Stop_1029
5560,117,Mater Dei - Mqabba,Universita 4,L-Imsida,"Monday, Tuesday, Wednesday, Thursday, Friday",06:09,07:09,08:09,09:08,10:08,11:08,12:08,13:08,14:08,15:08,16:08,17:08,18:08,19:08,20:08,,,,,,,,,,,,,,,,,,,,,,,,,,,,,,,,,,,,,,,,,,,,,,,,,,,,,,,,,,,,,,,,MALTA STOP,15,Universita 4 - L-Imsida - MALTA STOP,14.4798866,35.9011886,Stop_1029,Stop_692,Stop_1029_to_Stop_692
5561,117,Mater Dei - Mqabba,Qaddisin,Hal Qormi,"Monday, Tuesday, Wednesday, Thursday, Friday",06:19,07:19,08:19,09:16,10:16,11:16,12:16,13:16,14:16,15:18,16:18,17:18,18:18,19:18,20:18,,,,,,,,,,,,,,,,,,,,,,,,,,,,,,,,,,,,,,,,,,,,,,,,,,,,,,,,,,,,,,,,MALTA STOP,15,Qaddisin - Hal Qormi - MALTA STOP,14.4838708,35.8801098,Stop_692,Stop_693,Stop_692_to_Stop_693
5562,117,Mater Dei - Mqabba,Marsa Park & Ride 2,Il-Marsa,"Monday, Tuesday, Wednesday, Thursday, Friday",06:21,07:21,08:21,09:17,10:17,11:17,12:17,13:17,14:17,15:20,16:20,17:20,18:20,19:20,20:20,,,,,,,,,,,,,,,,,,,,,,,,,,,,,,,,,,,,,,,,,,,,,,,,,,,,,,,,,,,,,,,,MALTA STOP,15,Marsa Park & Ride 2 - Il-Marsa - MALTA STOP,14.4842364,35.8784074,Stop_693,Stop_3,Stop_693_to_Stop_3
5563,117,Mater Dei - Mqabba,Ingieret,San Vincenz/Luqa,"Monday, Tuesday, Wednesday, Thursday, Friday",06:26,07:25,08:25,09:21,10:21,11:21,12:21,13:21,14:21,15:24,16:25,17:25,18:24,19:24,20:24,,,,,,,,,,,,,,,,,,,,,,,,,,,,,,,,,,,,,,,,,,,,,,,,,,,,,,,,,,,,,,,,MALTA STOP,15,Ingieret - San Vincenz/Luqa - MALTA STOP,14.4826734,35.8709795,Stop_3,Stop_175,Stop_3_to_Stop_175
5564,117,Mater Dei - Mqabba,Farrug,Hal Farrug,"Monday, Tuesday, Wednesday, Thursday, Friday",06:27,07:26,08:26,09:22,10:22,11:22,12:22,13:22,14:22,15:25,16:26,17:26,18:25,19:25,20:25,,,,,,,,,,,,,,,,,,,,,,,,,,,,,,,,,,,,,,,,,,,,,,,,,,,,,,,,,,,,,,,,MALTA STOP,15,Farrug - Hal Farrug - MALTA STOP,14.4807103,35.8694297,Stop_175,Stop_176,Stop_175_to_Stop_176
5565,117,Mater Dei - Mqabba,Duca,Hal Farrug,"Monday, Tuesday, Wednesday, Thursday, Friday",06:28,07:27,08:27,09:23,10:23,11:23,12:23,13:23,14:23,15:26,16:27,17:27,18:26,19:26,20:26,,,,,,,,,,,,,,,,,,,,,,,,,,,,,,,,,,,,,,,,,,,,,,,,,,,,,,,,,,,,,,,,MALTA STOP,15,Duca - Hal Farrug - MALTA STOP,14.481078,35.866682,Stop_176,Stop_177,Stop_176_to_Stop_177
5566,117,Mater Dei - Mqabba,Schinas,Hal Farrug,"Monday, Tuesday, Wednesday, Thursday, Friday",06:29,07:28,08:28,09:24,10:24,11:24,12:24,13:25,14:25,15:28,16:28,17:28,18:27,19:27,20:27,,,,,,,,,,,,,,,,,,,,,,,,,,,,,,,,,,,,,,,,,,,,,,,,,,,,,,,,,,,,,,,,MALTA STOP,15,Schinas - Hal Farrug - MALTA STOP,14.4775705,35.8635925,Stop_177,Stop_178,Stop_177_to_Stop_178
5567,117,Mater Dei - Mqabba,Tumas,Hal Luqa,"Monday, Tuesday, Wednesday, Thursday, Friday",06:30,07:29,08:29,09:25,10:25,11:25,12:25,13:26,14:26,15:29,16:29,17:29,18:28,19:28,20:28,,,,,,,,,,,,,,,,,,,,,,,,,,,,,,,,,,,,,,,,,,,,,,,,,,,,,,,,,,,,,,,,MALTA STOP,15,Tumas - Hal Luqa - MALTA STOP,14.4838603,35.8604352,Stop_178,Stop_28,Stop_178_to_Stop_28
5568,117,Mater Dei - Mqabba,Azzopardi,Hal Luqa,"Monday, Tuesday, Wednesday, Thursday, Friday",06:31,07:30,08:30,09:26,10:26,11:26,12:26,13:27,14:27,15:30,16:30,17:30,18:29,19:29,20:29,,,,,,,,,,,,,,,,,,,,,,,,,,,,,,,,,,,,,,,,,,,,,,,,,,,,,,,,,,,,,,,,MALTA STOP,15,Azzopardi - Hal Luqa - MALTA STOP,14.4847525,35.858038,Stop_28,Stop_2,Stop_28_to_Stop_2
5569,117,Mater Dei - Mqabba,Mitjar,Hal Luqa,"Monday, Tuesday, Wednesday, Thursday, Friday",06:33,07:32,08:32,09:28,10:28,11:28,12:28,13:28,14:28,15:31,16:32,17:32,18:30,19:30,20:30,,,,,,,,,,,,,,,,,,,,,,,,,,,,,,,,,,,,,,,,,,,,,,,,,,,,,,,,,,,,,,,,MALTA STOP,15,Mitjar - Hal Luqa - MALTA STOP,14.4869488,35.8556994,Stop_2,Stop_29,Stop_2_to_Stop_29
5570,117,Mater Dei - Mqabba,Airport 3,Hal Luqa,"Monday, Tuesday, Wednesday, Thursday, Friday",06:38,07:37,08:37,09:33,10:33,11:33,12:33,13:33,14:33,15:36,16:37,17:37,18:35,19:35,20:35,,,,,,,,,,,,,,,,,,,,,,,,,,,,,,,,,,,,,,,,,,,,,,,,,,,,,,,,,,,,,,,,MALTA STOP,15,Airport 3 - Hal Luqa - MALTA STOP,14.4967201,35.8488557,Stop_29,Stop_783,Stop_29_to_Stop_783
5571,117,Mater Dei - Mqabba,Cintra,Hal Luqa,"Monday, Tuesday, Wednesday, Thursday, Friday",06:41,07:39,08:39,09:35,10:35,11:35,12:35,13:36,14:36,15:39,16:40,17:40,18:37,19:37,20:37,,,,,,,,,,,,,,,,,,,,,,,,,,,,,,,,,,,,,,,,,,,,,,,,,,,,,,,,,,,,,,,,MALTA STOP,15,Cintra - Hal Luqa - MALTA STOP,14.4933752,35.8520429,Stop_783,Stop_784,Stop_783_to_Stop_784
5572,117,Mater Dei - Mqabba,Mina,Hal Kirkop,"Monday, Tuesday, Wednesday, Thursday, Friday",06:43,07:42,08:42,09:38,10:38,11:38,12:38,13:38,14:38,15:41,16:42,17:42,18:39,19:39,20:39,,,,,,,,,,,,,,,,,,,,,,,,,,,,,,,,,,,,,,,,,,,,,,,,,,,,,,,,,,,,,,,,MALTA STOP,15,Mina - Hal Kirkop - MALTA STOP,14.4876448,35.8467135,Stop_784,Stop_785,Stop_784_to_Stop_785
5573,117,Mater Dei - Mqabba,Menhir,Hal Kirkop,"Monday, Tuesday, Wednesday, Thursday, Friday",06:44,07:42,08:42,09:38,10:38,11:38,12:38,13:39,14:39,15:42,16:43,17:43,18:40,19:40,20:40,,,,,,,,,,,,,,,,,,,,,,,,,,,,,,,,,,,,,,,,,,,,,,,,,,,,,,,,,,,,,,,,MALTA STOP,15,Menhir - Hal Kirkop - MALTA STOP,14.4856084,35.8448607,Stop_785,Stop_786,Stop_785_to_Stop_786
5574,117,Mater Dei - Mqabba,Ghasel,Hal Kirkop,"Monday, Tuesday, Wednesday, Thursday, Friday",06:45,07:43,08:43,09:39,10:39,11:39,12:39,13:40,14:40,15:43,16:44,17:44,18:41,19:41,20:41,,,,,,,,,,,,,,,,,,,,,,,,,,,,,,,,,,,,,,,,,,,,,,,,,,,,,,,,,,,,,,,,MALTA STOP,15,Ghasel - Hal Kirkop - MALTA STOP,14.4838292,35.8432915,Stop_786,Stop_787,Stop_786_to_Stop_787
5575,117,Mater Dei - Mqabba,Kirkop,Hal Kirkop,"Monday, Tuesday, Wednesday, Thursday, Friday",06:46,07:44,08:44,09:40,10:40,11:40,12:40,13:41,14:41,15:44,16:45,17:45,18:41,19:41,20:41,,,,,,,,,,,,,,,,,,,,,,,,,,,,,,,,,,,,,,,,,,,,,,,,,,,,,,,,,,,,,,,,MALTA STOP,15,Kirkop - Hal Kirkop - MALTA STOP,14.4832998,35.8414177,Stop_787,Stop_788,Stop_787_to_Stop_788
5576,117,Mater Dei - Mqabba,Karwija,Hal Kirkop,"Monday, Tuesday, Wednesday, Thursday, Friday",06:47,07:45,08:45,09:41,10:41,11:41,12:41,13:41,14:41,15:44,16:46,17:46,18:42,19:42,20:42,,,,,,,,,,,,,,,,,,,,,,,,,,,,,,,,,,,,,,,,,,,,,,,,,,,,,,,,,,,,,,,,MALTA STOP,15,Karwija - Hal Kirkop - MALTA STOP,14.4833386,35.840848,Stop_788,Stop_789,Stop_788_to_Stop_789
5577,117,Mater Dei - Mqabba,Artillerija,Hal Kirkop,"Monday, Tuesday, Wednesday, Thursday, Friday",06:47,07:45,08:45,09:41,10:41,11:41,12:41,13:42,14:42,15:45,16:46,17:46,18:42,19:42,20:42,,,,,,,,,,,,,,,,,,,,,,,,,,,,,,,,,,,,,,,,,,,,,,,,,,,,,,,,,,,,,,,,MALTA STOP,15,Artillerija - Hal Kirkop - MALTA STOP,14.4833091,35.8393803,Stop_789,Stop_790,Stop_789_to_Stop_790
5578,117,Mater Dei - Mqabba,Benedittu,Hal Safi,"Monday, Tuesday, Wednesday, Thursday, Friday",06:48,07:46,08:46,09:42,10:42,11:42,12:42,13:43,14:43,15:46,16:47,17:47,18:43,19:43,20:43,,,,,,,,,,,,,,,,,,,,,,,,,,,,,,,,,,,,,,,,,,,,,,,,,,,,,,,,,,,,,,,,MALTA STOP,15,Benedittu - Hal Safi - MALTA STOP,14.4838965,35.8372206,Stop_790,Stop_791,Stop_790_to_Stop_791
5579,117,Mater Dei - Mqabba,Midri,Hal Safi,"Monday, Tuesday, Wednesday, Thursday, Friday",06:49,07:47,08:47,09:43,10:43,11:43,12:43,13:44,14:44,15:47,16:48,17:48,18:44,19:44,20:44,,,,,,,,,,,,,,,,,,,,,,,,,,,,,,,,,,,,,,,,,,,,,,,,,,,,,,,,,,,,,,,,MALTA STOP,15,Midri - Hal Safi - MALTA STOP,14.4860448,35.8355292,Stop_791,Stop_792,Stop_791_to_Stop_792
5580,117,Mater Dei - Mqabba,Punici,Hal Safi,"Monday, Tuesday, Wednesday, Thursday, Friday",06:50,07:48,08:48,09:44,10:44,11:44,12:44,13:44,14:44,15:47,16:49,17:49,18:45,19:45,20:45,,,,,,,,,,,,,,,,,,,,,,,,,,,,,,,,,,,,,,,,,,,,,,,,,,,,,,,,,,,,,,,,MALTA STOP,15,Punici - Hal Safi - MALTA STOP,14.485494,35.8342873,Stop_792,Stop_793,Stop_792_to_Stop_793
5581,117,Mater Dei - Mqabba,Pastorale,Hal Safi,"Monday, Tuesday, Wednesday, Thursday, Friday",06:50,07:48,08:48,09:44,10:44,11:44,12:44,13:45,14:45,15:48,16:49,17:49,18:45,19:45,20:45,,,,,,,,,,,,,,,,,,,,,,,,,,,,,,,,,,,,,,,,,,,,,,,,,,,,,,,,,,,,,,,,MALTA STOP,15,Pastorale - Hal Safi - MALTA STOP,14.4849165,35.8330538,Stop_793,Stop_794,Stop_793_to_Stop_794
5582,117,Mater Dei - Mqabba,Soru,Hal Safi,"Monday, Tuesday, Wednesday, Thursday, Friday",06:51,07:48,08:48,09:44,10:44,11:44,12:44,13:45,14:45,15:48,16:50,17:50,18:46,19:46,20:46,,,,,,,,,,,,,,,,,,,,,,,,,,,,,,,,,,,,,,,,,,,,,,,,,,,,,,,,,,,,,,,,MALTA STOP,15,Soru - Hal Safi - MALTA STOP,14.4838096,35.8333492,Stop_794,Stop_795,Stop_794_to_Stop_795
5583,117,Mater Dei - Mqabba,Hajt,Hal Safi,"Monday, Tuesday, Wednesday, Thursday, Friday",06:52,07:49,08:49,09:45,10:45,11:45,12:45,13:46,14:46,15:49,16:51,17:51,18:46,19:46,20:46,,,,,,,,,,,,,,,,,,,,,,,,,,,,,,,,,,,,,,,,,,,,,,,,,,,,,,,,,,,,,,,,MALTA STOP,15,Hajt - Hal Safi - MALTA STOP,14.4811136,35.8325328,Stop_795,Stop_824,Stop_795_to_Stop_824
5584,117,Mater Dei - Mqabba,Xarolla,Iz-Zurrieq,"Monday, Tuesday, Wednesday, Thursday, Friday",06:52,07:50,08:50,09:46,10:46,11:46,12:46,13:47,14:47,15:50,16:51,17:51,18:47,19:47,20:47,,,,,,,,,,,,,,,,,,,,,,,,,,,,,,,,,,,,,,,,,,,,,,,,,,,,,,,,,,,,,,,,MALTA STOP,15,Xarolla - Iz-Zurrieq - MALTA STOP,14.4806685,35.831711,Stop_824,Stop_825,Stop_824_to_Stop_825
5585,117,Mater Dei - Mqabba,Martin,Iz-Zurrieq,"Monday, Tuesday, Wednesday, Thursday, Friday",06:54,07:51,08:51,09:47,10:47,11:47,12:47,13:48,14:48,15:51,16:53,17:53,18:48,19:48,20:48,,,,,,,,,,,,,,,,,,,,,,,,,,,,,,,,,,,,,,,,,,,,,,,,,,,,,,,,,,,,,,,,MALTA STOP,15,Martin - Iz-Zurrieq - MALTA STOP,14.4799818,35.8294364,Stop_825,Stop_826,Stop_825_to_Stop_826
5586,117,Mater Dei - Mqabba,Filfla,Iz-Zurrieq,"Monday, Tuesday, Wednesday, Thursday, Friday",06:55,07:52,08:52,09:48,10:48,11:48,12:48,13:49,14:49,15:52,16:54,17:54,18:49,19:49,20:49,,,,,,,,,,,,,,,,,,,,,,,,,,,,,,,,,,,,,,,,,,,,,,,,,,,,,,,,,,,,,,,,MALTA STOP,15,Filfla - Iz-Zurrieq - MALTA STOP,14.4810051,35.8275716,Stop_826,Stop_827,Stop_826_to_Stop_827
5587,117,Mater Dei - Mqabba,Bubaqra,Iz-Zurrieq,"Monday, Tuesday, Wednesday, Thursday, Friday",06:56,07:53,08:53,09:49,10:49,11:49,12:49,13:50,14:50,15:53,16:55,17:55,18:50,19:50,20:50,,,,,,,,,,,,,,,,,,,,,,,,,,,,,,,,,,,,,,,,,,,,,,,,,,,,,,,,,,,,,,,,MALTA STOP,15,Bubaqra - Iz-Zurrieq - MALTA STOP,14.4797941,35.8258101,Stop_827,Stop_828,Stop_827_to_Stop_828
5588,117,Mater Dei - Mqabba,Luq,Iz-Zurrieq,"Monday, Tuesday, Wednesday, Thursday, Friday",06:56,07:54,08:54,09:50,10:50,11:50,12:50,13:51,14:51,15:54,16:55,17:55,18:50,19:50,20:50,,,,,,,,,,,,,,,,,,,,,,,,,,,,,,,,,,,,,,,,,,,,,,,,,,,,,,,,,,,,,,,,MALTA STOP,15,Luq - Iz-Zurrieq - MALTA STOP,14.4783322,35.8252588,Stop_828,Stop_829,Stop_828_to_Stop_829
5589,117,Mater Dei - Mqabba,Callus,Iz-Zurrieq,"Monday, Tuesday, Wednesday, Thursday, Friday",06:58,07:55,08:55,09:51,10:51,11:51,12:51,13:52,14:52,15:55,16:57,17:57,18:52,19:52,20:52,,,,,,,,,,,,,,,,,,,,,,,,,,,,,,,,,,,,,,,,,,,,,,,,,,,,,,,,,,,,,,,,MALTA STOP,15,Callus - Iz-Zurrieq - MALTA STOP,14.4752973,35.826867,Stop_829,Stop_830,Stop_829_to_Stop_830
5590,117,Mater Dei - Mqabba,Piano,Iz-Zurrieq,"Monday, Tuesday, Wednesday, Thursday, Friday",06:59,07:56,08:56,09:52,10:52,11:52,12:52,13:53,14:53,15:56,16:58,17:58,18:52,19:52,20:52,,,,,,,,,,,,,,,,,,,,,,,,,,,,,,,,,,,,,,,,,,,,,,,,,,,,,,,,,,,,,,,,MALTA STOP,15,Piano - Iz-Zurrieq - MALTA STOP,14.4728772,35.8265703,Stop_830,Stop_831,Stop_830_to_Stop_831
5591,117,Mater Dei - Mqabba,Filippu,Iz-Zurrieq,"Monday, Tuesday, Wednesday, Thursday, Friday",07:00,07:57,08:57,09:53,10:53,11:53,12:53,13:54,14:54,15:57,16:59,17:59,18:53,19:53,20:53,,,,,,,,,,,,,,,,,,,,,,,,,,,,,,,,,,,,,,,,,,,,,,,,,,,,,,,,,,,,,,,,MALTA STOP,15,Filippu - Iz-Zurrieq - MALTA STOP,14.4732574,35.8282719,Stop_831,Stop_832,Stop_831_to_Stop_832
5592,117,Mater Dei - Mqabba,Inglott,Iz-Zurrieq,"Monday, Tuesday, Wednesday, Thursday, Friday",07:01,07:58,08:58,09:54,10:54,11:54,12:54,13:55,14:55,15:58,17:00,18:00,18:54,19:54,20:54,,,,,,,,,,,,,,,,,,,,,,,,,,,,,,,,,,,,,,,,,,,,,,,,,,,,,,,,,,,,,,,,MALTA STOP,15,Inglott - Iz-Zurrieq - MALTA STOP,14.4749661,35.8291471,Stop_832,Stop_833,Stop_832_to_Stop_833
5593,117,Mater Dei - Mqabba,Saydon,Iz-Zurrieq,"Monday, Tuesday, Wednesday, Thursday, Friday",07:01,07:58,08:58,09:54,10:54,11:54,12:54,13:55,14:55,15:58,17:00,18:00,18:55,19:55,20:55,,,,,,,,,,,,,,,,,,,,,,,,,,,,,,,,,,,,,,,,,,,,,,,,,,,,,,,,,,,,,,,,MALTA STOP,15,Saydon - Iz-Zurrieq - MALTA STOP,14.4752139,35.8302853,Stop_833,Stop_799,Stop_833_to_Stop_799
5594,117,Mater Dei - Mqabba,Zurrieq,Iz-Zurrieq,"Monday, Tuesday, Wednesday, Thursday, Friday",07:02,07:59,08:59,09:55,10:55,11:55,12:55,13:56,14:56,15:59,17:01,18:01,18:55,19:55,20:55,,,,,,,,,,,,,,,,,,,,,,,,,,,,,,,,,,,,,,,,,,,,,,,,,,,,,,,,,,,,,,,,MALTA STOP,15,Zurrieq - Iz-Zurrieq - MALTA STOP,14.4731744,35.8309118,Stop_799,Stop_848,Stop_799_to_Stop_848
5595,117,Mater Dei - Mqabba,Formosa,Iz-Zurrieq,"Monday, Tuesday, Wednesday, Thursday, Friday",07:04,08:00,09:00,09:56,10:56,11:56,12:56,13:58,14:58,16:01,17:03,18:03,18:57,19:57,20:57,,,,,,,,,,,,,,,,,,,,,,,,,,,,,,,,,,,,,,,,,,,,,,,,,,,,,,,,,,,,,,,,MALTA STOP,15,Formosa - Iz-Zurrieq - MALTA STOP,14.4706598,35.830989,Stop_848,Stop_847,Stop_848_to_Stop_847
5596,117,Mater Dei - Mqabba,Kangu,Iz-Zurrieq,"Monday, Tuesday, Wednesday, Thursday, Friday",07:04,08:01,09:01,09:57,10:57,11:57,12:57,13:58,14:58,16:01,17:03,18:03,18:57,19:57,20:57,,,,,,,,,,,,,,,,,,,,,,,,,,,,,,,,,,,,,,,,,,,,,,,,,,,,,,,,,,,,,,,,MALTA STOP,15,Kangu - Iz-Zurrieq - MALTA STOP,14.4687939,35.8291473,Stop_847,Stop_1030,Stop_847_to_Stop_1030
5597,117,Mater Dei - Mqabba,Sardin,Iz-Zurrieq,"Monday, Tuesday, Wednesday, Thursday, Friday",07:05,08:02,09:02,09:58,10:58,11:58,12:58,13:59,14:59,16:02,17:04,18:04,18:58,19:58,20:58,,,,,,,,,,,,,,,,,,,,,,,,,,,,,,,,,,,,,,,,,,,,,,,,,,,,,,,,,,,,,,,,MALTA STOP,15,Sardin - Iz-Zurrieq - MALTA STOP,14.4683571,35.8276433,Stop_1030,Stop_1031,Stop_1030_to_Stop_1031
5598,117,Mater Dei - Mqabba,Nigret,Iz-Zurrieq,"Monday, Tuesday, Wednesday, Thursday, Friday",07:06,08:02,09:02,09:58,10:58,11:58,12:58,14:00,15:00,16:03,17:05,18:05,18:59,19:59,20:59,,,,,,,,,,,,,,,,,,,,,,,,,,,,,,,,,,,,,,,,,,,,,,,,,,,,,,,,,,,,,,,,MALTA STOP,15,Nigret - Iz-Zurrieq - MALTA STOP,14.4703031,35.8266876,Stop_1031,Stop_1032,Stop_1031_to_Stop_1032
5599,117,Mater Dei - Mqabba,Gibjun,Iz-Zurrieq,"Monday, Tuesday, Wednesday, Thursday, Friday",07:07,08:04,09:04,10:00,11:00,12:00,13:00,14:01,15:01,16:04,17:06,18:06,19:00,20:00,21:00,,,,,,,,,,,,,,,,,,,,,,,,,,,,,,,,,,,,,,,,,,,,,,,,,,,,,,,,,,,,,,,,MALTA STOP,15,Gibjun - Iz-Zurrieq - MALTA STOP,14.4681466,35.8249728,Stop_1032,Stop_1033,Stop_1032_to_Stop_1033
5600,117,Mater Dei - Mqabba,Franzina,Iz-Zurrieq,"Monday, Tuesday, Wednesday, Thursday, Friday",07:08,08:04,09:04,10:00,11:00,12:00,13:00,14:02,15:02,16:05,17:07,18:07,19:00,20:00,21:00,,,,,,,,,,,,,,,,,,,,,,,,,,,,,,,,,,,,,,,,,,,,,,,,,,,,,,,,,,,,,,,,MALTA STOP,15,Franzina - Iz-Zurrieq - MALTA STOP,14.4684952,35.8233635,Stop_1033,Stop_1032,Stop_1033_to_Stop_1032
5601,117,Mater Dei - Mqabba,Gibjun,Iz-Zurrieq,"Monday, Tuesday, Wednesday, Thursday, Friday",07:09,08:05,09:05,10:01,11:01,12:01,13:01,14:03,15:03,16:06,17:08,18:08,19:01,20:01,21:01,,,,,,,,,,,,,,,,,,,,,,,,,,,,,,,,,,,,,,,,,,,,,,,,,,,,,,,,,,,,,,,,MALTA STOP,15,Gibjun - Iz-Zurrieq - MALTA STOP,14.4681466,35.8249728,Stop_1032,Stop_1031,Stop_1032_to_Stop_1031
5602,117,Mater Dei - Mqabba,Nigret,Iz-Zurrieq,"Monday, Tuesday, Wednesday, Thursday, Friday",07:10,08:07,09:07,10:03,11:03,12:03,13:03,14:04,15:04,16:07,17:09,18:09,19:03,20:03,21:03,,,,,,,,,,,,,,,,,,,,,,,,,,,,,,,,,,,,,,,,,,,,,,,,,,,,,,,,,,,,,,,,MALTA STOP,15,Nigret - Iz-Zurrieq - MALTA STOP,14.4703031,35.8266876,Stop_1031,Stop_847,Stop_1031_to_Stop_847
5603,117,Mater Dei - Mqabba,Kangu,Iz-Zurrieq,"Monday, Tuesday, Wednesday, Thursday, Friday",07:12,08:08,09:08,10:04,11:04,12:04,13:04,14:06,15:06,16:09,17:11,18:11,19:04,20:04,21:04,,,,,,,,,,,,,,,,,,,,,,,,,,,,,,,,,,,,,,,,,,,,,,,,,,,,,,,,,,,,,,,,MALTA STOP,15,Kangu - Iz-Zurrieq - MALTA STOP,14.4687939,35.8291473,Stop_847,Stop_848,Stop_847_to_Stop_848
5604,117,Mater Dei - Mqabba,Formosa,Iz-Zurrieq,"Monday, Tuesday, Wednesday, Thursday, Friday",07:13,08:09,09:09,10:05,11:05,12:05,13:05,14:07,15:07,16:10,17:12,18:12,19:05,20:05,21:05,,,,,,,,,,,,,,,,,,,,,,,,,,,,,,,,,,,,,,,,,,,,,,,,,,,,,,,,,,,,,,,,MALTA STOP,15,Formosa - Iz-Zurrieq - MALTA STOP,14.4706598,35.830989,Stop_848,Stop_1034,Stop_848_to_Stop_1034
5605,117,Mater Dei - Mqabba,Glud,Iz-Zurrieq,"Monday, Tuesday, Wednesday, Thursday, Friday",07:14,08:09,09:09,10:05,11:05,12:05,13:05,14:07,15:07,16:10,17:13,18:13,19:05,20:05,21:05,,,,,,,,,,,,,,,,,,,,,,,,,,,,,,,,,,,,,,,,,,,,,,,,,,,,,,,,,,,,,,,,MALTA STOP,15,Glud - Iz-Zurrieq - MALTA STOP,14.4694642,35.8318812,Stop_1034,Stop_817,Stop_1034_to_Stop_817
5606,117,Mater Dei - Mqabba,Kartaginizi,Il-Qrendi,"Monday, Tuesday, Wednesday, Thursday, Friday",07:17,08:13,09:13,10:09,11:09,12:09,13:09,14:10,15:10,16:13,17:16,18:16,19:08,20:08,21:08,,,,,,,,,,,,,,,,,,,,,,,,,,,,,,,,,,,,,,,,,,,,,,,,,,,,,,,,,,,,,,,,MALTA STOP,15,Kartaginizi - Il-Qrendi - MALTA STOP,14.4623322,35.8351815,Stop_817,Stop_818,Stop_817_to_Stop_818
5607,117,Mater Dei - Mqabba,Chircop,Il-Qrendi,"Monday, Tuesday, Wednesday, Thursday, Friday",07:18,08:13,09:13,10:09,11:09,12:09,13:09,14:11,15:11,16:14,17:17,18:17,19:09,20:09,21:09,,,,,,,,,,,,,,,,,,,,,,,,,,,,,,,,,,,,,,,,,,,,,,,,,,,,,,,,,,,,,,,,MALTA STOP,15,Chircop - Il-Qrendi - MALTA STOP,14.4606303,35.8338866,Stop_818,Stop_819,Stop_818_to_Stop_819
5608,117,Mater Dei - Mqabba,Qrendi,Il-Qrendi,"Monday, Tuesday, Wednesday, Thursday, Friday",07:19,08:14,09:14,10:10,11:10,12:10,13:10,14:12,15:12,16:15,17:18,18:18,19:10,20:10,21:10,,,,,,,,,,,,,,,,,,,,,,,,,,,,,,,,,,,,,,,,,,,,,,,,,,,,,,,,,,,,,,,,MALTA STOP,15,Qrendi - Il-Qrendi - MALTA STOP,14.4580266,35.8343531,Stop_819,Stop_818,Stop_819_to_Stop_818
5609,117,Mater Dei - Mqabba,Chircop,Il-Qrendi,"Monday, Tuesday, Wednesday, Thursday, Friday",07:20,08:15,09:15,10:11,11:11,12:11,13:11,14:13,15:13,16:16,17:19,18:19,19:10,20:10,21:10,,,,,,,,,,,,,,,,,,,,,,,,,,,,,,,,,,,,,,,,,,,,,,,,,,,,,,,,,,,,,,,,MALTA STOP,15,Chircop - Il-Qrendi - MALTA STOP,14.4606303,35.8338866,Stop_818,Stop_817,Stop_818_to_Stop_817
5610,117,Mater Dei - Mqabba,Kartaginizi,Il-Qrendi,"Monday, Tuesday, Wednesday, Thursday, Friday",07:20,08:16,09:16,10:12,11:12,12:12,13:12,14:14,15:14,16:17,17:19,18:19,19:11,20:11,21:11,,,,,,,,,,,,,,,,,,,,,,,,,,,,,,,,,,,,,,,,,,,,,,,,,,,,,,,,,,,,,,,,MALTA STOP,15,Kartaginizi - Il-Qrendi - MALTA STOP,14.4623322,35.8351815,Stop_817,Stop_816,Stop_817_to_Stop_816
5611,117,Mater Dei - Mqabba,Tempesta,Il-Qrendi,"Monday, Tuesday, Wednesday, Thursday, Friday",07:21,08:17,09:17,10:13,11:13,12:13,13:13,14:15,15:15,16:18,17:20,18:20,19:12,20:12,21:12,,,,,,,,,,,,,,,,,,,,,,,,,,,,,,,,,,,,,,,,,,,,,,,,,,,,,,,,,,,,,,,,MALTA STOP,15,Tempesta - Il-Qrendi - MALTA STOP,14.4634405,35.8376642,Stop_816,Stop_815,Stop_816_to_Stop_815
5612,117,Mater Dei - Mqabba,Saljutura,L-Imqabba,"Monday, Tuesday, Wednesday, Thursday, Friday",07:23,08:18,09:18,10:14,11:14,12:14,13:14,14:16,15:16,16:19,17:22,18:22,19:13,20:13,21:13,,,,,,,,,,,,,,,,,,,,,,,,,,,,,,,,,,,,,,,,,,,,,,,,,,,,,,,,,,,,,,,,MALTA STOP,15,Saljutura - L-Imqabba - MALTA STOP,14.4644397,35.8412057,Stop_815,Stop_814,Stop_815_to_Stop_814
5613,117,Mater Dei - Mqabba,Mentna,L-Imqabba,"Monday, Tuesday, Wednesday, Thursday, Friday",07:23,08:18,09:18,10:14,11:14,12:14,13:14,14:16,15:16,16:19,17:22,18:22,19:14,20:14,21:14,,,,,,,,,,,,,,,,,,,,,,,,,,,,,,,,,,,,,,,,,,,,,,,,,,,,,,,,,,,,,,,,MALTA STOP,15,Mentna - L-Imqabba - MALTA STOP,14.4647316,35.8421263,Stop_814,Stop_813,Stop_814_to_Stop_813
5614,117,Mater Dei - Mqabba,Hagra,L-Imqabba,"Monday, Tuesday, Wednesday, Thursday, Friday",07:24,08:19,09:19,10:15,11:15,12:15,13:15,14:17,15:17,16:20,17:23,18:23,19:14,20:14,21:14,,,,,,,,,,,,,,,,,,,,,,,,,,,,,,,,,,,,,,,,,,,,,,,,,,,,,,,,,,,,,,,,MALTA STOP,15,Hagra - L-Imqabba - MALTA STOP,14.4638403,35.8434561,Stop_813,Stop_812,Stop_813_to_Stop_812
5615,117,Mater Dei - Mqabba,Gilju,L-Imqabba,"Monday, Tuesday, Wednesday, Thursday, Friday",07:25,08:20,09:20,10:16,11:16,12:16,13:16,14:18,15:18,16:21,17:24,18:24,19:15,20:15,21:15,,,,,,,,,,,,,,,,,,,,,,,,,,,,,,,,,,,,,,,,,,,,,,,,,,,,,,,,,,,,,,,,MALTA STOP,15,Gilju - L-Imqabba - MALTA STOP,14.4661443,35.844978,Stop_812,Stop_811,Stop_812_to_Stop_811
5616,117,Mater Dei - Mqabba,Bazilju,L-Imqabba,"Monday, Tuesday, Wednesday, Thursday, Friday",07:26,08:21,09:21,10:17,11:17,12:17,13:17,14:19,15:19,16:22,17:25,18:25,19:16,20:16,21:16,,,,,,,,,,,,,,,,,,,,,,,,,,,,,,,,,,,,,,,,,,,,,,,,,,,,,,,,,,,,,,,,MALTA STOP,15,Bazilju - L-Imqabba - MALTA STOP,14.4676591,35.8449639,Stop_811,,
5617,117,Mqabba - Mater Dei,Bazilju,L-Imqabba,"Monday, Tuesday, Wednesday, Thursday, Friday",04:50,06:00,07:00,08:00,09:00,10:00,11:00,12:00,13:00,14:00,15:00,16:00,17:00,18:00,19:00,20:00,,,,,,,,,,,,,,,,,,,,,,,,,,,,,,,,,,,,,,,,,,,,,,,,,,,,,,,,,,,,,,,MALTA STOP,16,Bazilju - L-Imqabba - MALTA STOP,14.4676591,35.8449639,Stop_811,Stop_841,Stop_811_to_Stop_841
5618,117,Mqabba - Mater Dei,Konvoj,L-Imqabba,"Monday, Tuesday, Wednesday, Thursday, Friday",04:51,06:01,07:01,08:01,09:01,10:01,11:01,12:01,13:01,14:01,15:01,16:01,17:01,18:01,19:01,20:00,,,,,,,,,,,,,,,,,,,,,,,,,,,,,,,,,,,,,,,,,,,,,,,,,,,,,,,,,,,,,,,MALTA STOP,16,Konvoj - L-Imqabba - MALTA STOP,14.4678944,35.8431495,Stop_841,Stop_815,Stop_841_to_Stop_815
5619,117,Mqabba - Mater Dei,Saljutura,L-Imqabba,"Monday, Tuesday, Wednesday, Thursday, Friday",04:52,06:02,07:02,08:02,09:02,10:02,11:02,12:02,13:02,14:02,15:02,16:02,17:02,18:02,19:02,20:01,,,,,,,,,,,,,,,,,,,,,,,,,,,,,,,,,,,,,,,,,,,,,,,,,,,,,,,,,,,,,,,MALTA STOP,16,Saljutura - L-Imqabba - MALTA STOP,14.4644397,35.8412057,Stop_815,Stop_816,Stop_815_to_Stop_816
5620,117,Mqabba - Mater Dei,Tempesta,Il-Qrendi,"Monday, Tuesday, Wednesday, Thursday, Friday",04:53,06:03,07:03,08:03,09:03,10:03,11:03,12:03,13:03,14:03,15:03,16:03,17:03,18:03,19:03,20:02,,,,,,,,,,,,,,,,,,,,,,,,,,,,,,,,,,,,,,,,,,,,,,,,,,,,,,,,,,,,,,,MALTA STOP,16,Tempesta - Il-Qrendi - MALTA STOP,14.4634405,35.8376642,Stop_816,Stop_817,Stop_816_to_Stop_817
5621,117,Mqabba - Mater Dei,Kartaginizi,Il-Qrendi,"Monday, Tuesday, Wednesday, Thursday, Friday",04:54,06:05,07:05,08:05,09:04,10:04,11:04,12:04,13:04,14:04,15:04,16:04,17:04,18:04,19:04,20:03,,,,,,,,,,,,,,,,,,,,,,,,,,,,,,,,,,,,,,,,,,,,,,,,,,,,,,,,,,,,,,,MALTA STOP,16,Kartaginizi - Il-Qrendi - MALTA STOP,14.4623322,35.8351815,Stop_817,Stop_818,Stop_817_to_Stop_818
5622,117,Mqabba - Mater Dei,Chircop,Il-Qrendi,"Monday, Tuesday, Wednesday, Thursday, Friday",04:54,06:05,07:05,08:05,09:04,10:04,11:04,12:04,13:04,14:04,15:04,16:04,17:04,18:04,19:04,20:03,,,,,,,,,,,,,,,,,,,,,,,,,,,,,,,,,,,,,,,,,,,,,,,,,,,,,,,,,,,,,,,MALTA STOP,16,Chircop - Il-Qrendi - MALTA STOP,14.4606303,35.8338866,Stop_818,Stop_819,Stop_818_to_Stop_819
5623,117,Mqabba - Mater Dei,Qrendi,Il-Qrendi,"Monday, Tuesday, Wednesday, Thursday, Friday",04:55,06:06,07:06,08:06,09:05,10:05,11:05,12:05,13:05,14:05,15:05,16:05,17:05,18:05,19:05,20:04,,,,,,,,,,,,,,,,,,,,,,,,,,,,,,,,,,,,,,,,,,,,,,,,,,,,,,,,,,,,,,,MALTA STOP,16,Qrendi - Il-Qrendi - MALTA STOP,14.4580266,35.8343531,Stop_819,Stop_818,Stop_819_to_Stop_818
5624,117,Mqabba - Mater Dei,Chircop,Il-Qrendi,"Monday, Tuesday, Wednesday, Thursday, Friday",04:56,06:07,07:07,08:07,09:06,10:06,11:06,12:06,13:06,14:06,15:06,16:06,17:06,18:06,19:06,20:05,,,,,,,,,,,,,,,,,,,,,,,,,,,,,,,,,,,,,,,,,,,,,,,,,,,,,,,,,,,,,,,MALTA STOP,16,Chircop - Il-Qrendi - MALTA STOP,14.4606303,35.8338866,Stop_818,Stop_817,Stop_818_to_Stop_817
5625,117,Mqabba - Mater Dei,Kartaginizi,Il-Qrendi,"Monday, Tuesday, Wednesday, Thursday, Friday",04:57,06:08,07:08,08:08,09:07,10:07,11:07,12:07,13:07,14:07,15:07,16:07,17:07,18:07,19:07,20:05,,,,,,,,,,,,,,,,,,,,,,,,,,,,,,,,,,,,,,,,,,,,,,,,,,,,,,,,,,,,,,,MALTA STOP,16,Kartaginizi - Il-Qrendi - MALTA STOP,14.4623322,35.8351815,Stop_817,Stop_1034,Stop_817_to_Stop_1034
5626,117,Mqabba - Mater Dei,Glud,Iz-Zurrieq,"Monday, Tuesday, Wednesday, Thursday, Friday",05:00,06:12,07:12,08:12,09:10,10:10,11:10,12:10,13:10,14:10,15:10,16:10,17:10,18:10,19:10,20:08,,,,,,,,,,,,,,,,,,,,,,,,,,,,,,,,,,,,,,,,,,,,,,,,,,,,,,,,,,,,,,,MALTA STOP,16,Glud - Iz-Zurrieq - MALTA STOP,14.4694642,35.8318812,Stop_1034,Stop_848,Stop_1034_to_Stop_848
5627,117,Mqabba - Mater Dei,Formosa,Iz-Zurrieq,"Monday, Tuesday, Wednesday, Thursday, Friday",05:00,06:12,07:12,08:12,09:10,10:10,11:10,12:10,13:10,14:10,15:10,16:10,17:10,18:10,19:10,20:08,,,,,,,,,,,,,,,,,,,,,,,,,,,,,,,,,,,,,,,,,,,,,,,,,,,,,,,,,,,,,,,MALTA STOP,16,Formosa - Iz-Zurrieq - MALTA STOP,14.4706598,35.830989,Stop_848,Stop_847,Stop_848_to_Stop_847
5628,117,Mqabba - Mater Dei,Kangu,Iz-Zurrieq,"Monday, Tuesday, Wednesday, Thursday, Friday",05:01,06:13,07:13,08:13,09:11,10:11,11:11,12:11,13:11,14:11,15:11,16:11,17:11,18:11,19:11,20:08,,,,,,,,,,,,,,,,,,,,,,,,,,,,,,,,,,,,,,,,,,,,,,,,,,,,,,,,,,,,,,,MALTA STOP,16,Kangu - Iz-Zurrieq - MALTA STOP,14.4687939,35.8291473,Stop_847,Stop_1030,Stop_847_to_Stop_1030
5629,117,Mqabba - Mater Dei,Sardin,Iz-Zurrieq,"Monday, Tuesday, Wednesday, Thursday, Friday",05:02,06:14,07:14,08:14,09:12,10:12,11:12,12:12,13:12,14:12,15:12,16:12,17:12,18:12,19:12,20:09,,,,,,,,,,,,,,,,,,,,,,,,,,,,,,,,,,,,,,,,,,,,,,,,,,,,,,,,,,,,,,,MALTA STOP,16,Sardin - Iz-Zurrieq - MALTA STOP,14.4683571,35.8276433,Stop_1030,Stop_1031,Stop_1030_to_Stop_1031
5630,117,Mqabba - Mater Dei,Nigret,Iz-Zurrieq,"Monday, Tuesday, Wednesday, Thursday, Friday",05:02,06:15,07:15,08:15,09:12,10:12,11:12,12:12,13:12,14:12,15:12,16:12,17:12,18:12,19:12,20:10,,,,,,,,,,,,,,,,,,,,,,,,,,,,,,,,,,,,,,,,,,,,,,,,,,,,,,,,,,,,,,,MALTA STOP,16,Nigret - Iz-Zurrieq - MALTA STOP,14.4703031,35.8266876,Stop_1031,Stop_1032,Stop_1031_to_Stop_1032
5631,117,Mqabba - Mater Dei,Gibjun,Iz-Zurrieq,"Monday, Tuesday, Wednesday, Thursday, Friday",05:03,06:16,07:16,08:16,09:13,10:13,11:13,12:13,13:13,14:13,15:13,16:13,17:13,18:13,19:13,20:10,,,,,,,,,,,,,,,,,,,,,,,,,,,,,,,,,,,,,,,,,,,,,,,,,,,,,,,,,,,,,,,MALTA STOP,16,Gibjun - Iz-Zurrieq - MALTA STOP,14.4681466,35.8249728,Stop_1032,Stop_1033,Stop_1032_to_Stop_1033
5632,117,Mqabba - Mater Dei,Franzina,Iz-Zurrieq,"Monday, Tuesday, Wednesday, Thursday, Friday",05:04,06:17,07:17,08:17,09:14,10:14,11:14,12:14,13:14,14:14,15:14,16:14,17:14,18:14,19:14,20:11,,,,,,,,,,,,,,,,,,,,,,,,,,,,,,,,,,,,,,,,,,,,,,,,,,,,,,,,,,,,,,,MALTA STOP,16,Franzina - Iz-Zurrieq - MALTA STOP,14.4684952,35.8233635,Stop_1033,Stop_1032,Stop_1033_to_Stop_1032
5633,117,Mqabba - Mater Dei,Gibjun,Iz-Zurrieq,"Monday, Tuesday, Wednesday, Thursday, Friday",05:05,06:18,07:18,08:18,09:15,10:15,11:15,12:15,13:15,14:15,15:15,16:15,17:15,18:15,19:15,20:12,,,,,,,,,,,,,,,,,,,,,,,,,,,,,,,,,,,,,,,,,,,,,,,,,,,,,,,,,,,,,,,MALTA STOP,16,Gibjun - Iz-Zurrieq - MALTA STOP,14.4681466,35.8249728,Stop_1032,Stop_1031,Stop_1032_to_Stop_1031
5634,117,Mqabba - Mater Dei,Nigret,Iz-Zurrieq,"Monday, Tuesday, Wednesday, Thursday, Friday",05:06,06:19,07:19,08:19,09:16,10:16,11:16,12:16,13:16,14:16,15:16,16:16,17:16,18:16,19:16,20:13,,,,,,,,,,,,,,,,,,,,,,,,,,,,,,,,,,,,,,,,,,,,,,,,,,,,,,,,,,,,,,,MALTA STOP,16,Nigret - Iz-Zurrieq - MALTA STOP,14.4703031,35.8266876,Stop_1031,Stop_847,Stop_1031_to_Stop_847
5635,117,Mqabba - Mater Dei,Kangu,Iz-Zurrieq,"Monday, Tuesday, Wednesday, Thursday, Friday",05:08,06:21,07:21,08:21,09:18,10:18,11:18,12:18,13:18,14:18,15:18,16:18,17:18,18:18,19:18,20:14,,,,,,,,,,,,,,,,,,,,,,,,,,,,,,,,,,,,,,,,,,,,,,,,,,,,,,,,,,,,,,,MALTA STOP,16,Kangu - Iz-Zurrieq - MALTA STOP,14.4687939,35.8291473,Stop_847,Stop_848,Stop_847_to_Stop_848
5636,117,Mqabba - Mater Dei,Formosa,Iz-Zurrieq,"Monday, Tuesday, Wednesday, Thursday, Friday",05:08,06:22,07:22,08:22,09:18,10:18,11:18,12:18,13:18,14:18,15:18,16:18,17:18,18:18,19:18,20:14,,,,,,,,,,,,,,,,,,,,,,,,,,,,,,,,,,,,,,,,,,,,,,,,,,,,,,,,,,,,,,,MALTA STOP,16,Formosa - Iz-Zurrieq - MALTA STOP,14.4706598,35.830989,Stop_848,Stop_799,Stop_848_to_Stop_799
5637,117,Mqabba - Mater Dei,Zurrieq,Iz-Zurrieq,"Monday, Tuesday, Wednesday, Thursday, Friday",05:10,06:23,07:23,08:23,09:20,10:20,11:20,12:20,13:20,14:20,15:20,16:20,17:20,18:20,19:20,20:15,,,,,,,,,,,,,,,,,,,,,,,,,,,,,,,,,,,,,,,,,,,,,,,,,,,,,,,,,,,,,,,MALTA STOP,16,Zurrieq - Iz-Zurrieq - MALTA STOP,14.4731744,35.8309118,Stop_799,Stop_833,Stop_799_to_Stop_833
5638,117,Mqabba - Mater Dei,Saydon,Iz-Zurrieq,"Monday, Tuesday, Wednesday, Thursday, Friday",05:10,06:24,07:24,08:24,09:20,10:20,11:20,12:20,13:20,14:20,15:20,16:20,17:20,18:20,19:20,20:16,,,,,,,,,,,,,,,,,,,,,,,,,,,,,,,,,,,,,,,,,,,,,,,,,,,,,,,,,,,,,,,MALTA STOP,16,Saydon - Iz-Zurrieq - MALTA STOP,14.4752139,35.8302853,Stop_833,Stop_832,Stop_833_to_Stop_832
5639,117,Mqabba - Mater Dei,Inglott,Iz-Zurrieq,"Monday, Tuesday, Wednesday, Thursday, Friday",05:11,06:25,07:25,08:25,09:21,10:21,11:21,12:21,13:21,14:21,15:21,16:21,17:21,18:21,19:21,20:16,,,,,,,,,,,,,,,,,,,,,,,,,,,,,,,,,,,,,,,,,,,,,,,,,,,,,,,,,,,,,,,MALTA STOP,16,Inglott - Iz-Zurrieq - MALTA STOP,14.4749661,35.8291471,Stop_832,Stop_831,Stop_832_to_Stop_831
5640,117,Mqabba - Mater Dei,Filippu,Iz-Zurrieq,"Monday, Tuesday, Wednesday, Thursday, Friday",05:11,06:25,07:25,08:25,09:21,10:21,11:21,12:21,13:21,14:21,15:21,16:21,17:21,18:21,19:21,20:17,,,,,,,,,,,,,,,,,,,,,,,,,,,,,,,,,,,,,,,,,,,,,,,,,,,,,,,,,,,,,,,MALTA STOP,16,Filippu - Iz-Zurrieq - MALTA STOP,14.4732574,35.8282719,Stop_831,Stop_830,Stop_831_to_Stop_830
5641,117,Mqabba - Mater Dei,Piano,Iz-Zurrieq,"Monday, Tuesday, Wednesday, Thursday, Friday",05:12,06:27,07:27,08:27,09:22,10:22,11:22,12:22,13:22,14:22,15:22,16:22,17:22,18:22,19:22,20:17,,,,,,,,,,,,,,,,,,,,,,,,,,,,,,,,,,,,,,,,,,,,,,,,,,,,,,,,,,,,,,,MALTA STOP,16,Piano - Iz-Zurrieq - MALTA STOP,14.4728772,35.8265703,Stop_830,Stop_829,Stop_830_to_Stop_829
5642,117,Mqabba - Mater Dei,Callus,Iz-Zurrieq,"Monday, Tuesday, Wednesday, Thursday, Friday",05:13,06:27,07:27,08:27,09:23,10:23,11:23,12:23,13:23,14:23,15:23,16:23,17:23,18:23,19:23,20:18,,,,,,,,,,,,,,,,,,,,,,,,,,,,,,,,,,,,,,,,,,,,,,,,,,,,,,,,,,,,,,,MALTA STOP,16,Callus - Iz-Zurrieq - MALTA STOP,14.4752973,35.826867,Stop_829,Stop_1035,Stop_829_to_Stop_1035
5643,117,Mqabba - Mater Dei,Roncali,Iz-Zurrieq,"Monday, Tuesday, Wednesday, Thursday, Friday",05:13,06:28,07:28,08:28,09:23,10:23,11:23,12:23,13:23,14:23,15:23,16:23,17:23,18:23,19:23,20:18,,,,,,,,,,,,,,,,,,,,,,,,,,,,,,,,,,,,,,,,,,,,,,,,,,,,,,,,,,,,,,,MALTA STOP,16,Roncali - Iz-Zurrieq - MALTA STOP,14.4769992,35.8266615,Stop_1035,Stop_828,Stop_1035_to_Stop_828
5644,117,Mqabba - Mater Dei,Luq,Iz-Zurrieq,"Monday, Tuesday, Wednesday, Thursday, Friday",05:14,06:29,07:29,08:29,09:24,10:24,11:24,12:24,13:24,14:24,15:24,16:24,17:24,18:24,19:24,20:19,,,,,,,,,,,,,,,,,,,,,,,,,,,,,,,,,,,,,,,,,,,,,,,,,,,,,,,,,,,,,,,MALTA STOP,16,Luq - Iz-Zurrieq - MALTA STOP,14.4783322,35.8252588,Stop_828,Stop_827,Stop_828_to_Stop_827
5645,117,Mqabba - Mater Dei,Bubaqra,Iz-Zurrieq,"Monday, Tuesday, Wednesday, Thursday, Friday",05:15,06:30,07:30,08:30,09:25,10:25,11:25,12:25,13:25,14:25,15:25,16:25,17:25,18:25,19:25,20:19,,,,,,,,,,,,,,,,,,,,,,,,,,,,,,,,,,,,,,,,,,,,,,,,,,,,,,,,,,,,,,,MALTA STOP,16,Bubaqra - Iz-Zurrieq - MALTA STOP,14.4797941,35.8258101,Stop_827,Stop_826,Stop_827_to_Stop_826
5646,117,Mqabba - Mater Dei,Filfla,Iz-Zurrieq,"Monday, Tuesday, Wednesday, Thursday, Friday",05:15,06:30,07:30,08:30,09:25,10:25,11:25,12:25,13:25,14:25,15:25,16:25,17:25,18:25,19:25,20:20,,,,,,,,,,,,,,,,,,,,,,,,,,,,,,,,,,,,,,,,,,,,,,,,,,,,,,,,,,,,,,,MALTA STOP,16,Filfla - Iz-Zurrieq - MALTA STOP,14.4810051,35.8275716,Stop_826,Stop_825,Stop_826_to_Stop_825
5647,117,Mqabba - Mater Dei,Martin,Iz-Zurrieq,"Monday, Tuesday, Wednesday, Thursday, Friday",05:16,06:32,07:32,08:32,09:26,10:26,11:26,12:26,13:26,14:26,15:26,16:26,17:26,18:26,19:26,20:21,,,,,,,,,,,,,,,,,,,,,,,,,,,,,,,,,,,,,,,,,,,,,,,,,,,,,,,,,,,,,,,MALTA STOP,16,Martin - Iz-Zurrieq - MALTA STOP,14.4799818,35.8294364,Stop_825,Stop_1036,Stop_825_to_Stop_1036
5648,117,Mqabba - Mater Dei,Klementina,Iz-Zurrieq,"Monday, Tuesday, Wednesday, Thursday, Friday",05:17,06:32,07:32,08:32,09:27,10:27,11:27,12:27,13:27,14:27,15:27,16:27,17:27,18:27,19:27,20:21,,,,,,,,,,,,,,,,,,,,,,,,,,,,,,,,,,,,,,,,,,,,,,,,,,,,,,,,,,,,,,,MALTA STOP,16,Klementina - Iz-Zurrieq - MALTA STOP,14.4815066,35.8306955,Stop_1036,Stop_795,Stop_1036_to_Stop_795
5649,117,Mqabba - Mater Dei,Hajt,Hal Safi,"Monday, Tuesday, Wednesday, Thursday, Friday",05:19,06:34,07:34,08:34,09:29,10:29,11:29,12:29,13:29,14:29,15:29,16:29,17:29,18:29,19:29,20:22,,,,,,,,,,,,,,,,,,,,,,,,,,,,,,,,,,,,,,,,,,,,,,,,,,,,,,,,,,,,,,,MALTA STOP,16,Hajt - Hal Safi - MALTA STOP,14.4811136,35.8325328,Stop_795,Stop_794,Stop_795_to_Stop_794
5650,117,Mqabba - Mater Dei,Soru,Hal Safi,"Monday, Tuesday, Wednesday, Thursday, Friday",05:19,06:35,07:35,08:35,09:29,10:29,11:29,12:29,13:29,14:29,15:29,16:29,17:29,18:29,19:29,20:23,,,,,,,,,,,,,,,,,,,,,,,,,,,,,,,,,,,,,,,,,,,,,,,,,,,,,,,,,,,,,,,MALTA STOP,16,Soru - Hal Safi - MALTA STOP,14.4838096,35.8333492,Stop_794,Stop_792,Stop_794_to_Stop_792
5651,117,Mqabba - Mater Dei,Punici,Hal Safi,"Monday, Tuesday, Wednesday, Thursday, Friday",05:20,06:36,07:36,08:36,09:30,10:30,11:30,12:30,13:30,14:30,15:30,16:30,17:30,18:30,19:30,20:23,,,,,,,,,,,,,,,,,,,,,,,,,,,,,,,,,,,,,,,,,,,,,,,,,,,,,,,,,,,,,,,MALTA STOP,16,Punici - Hal Safi - MALTA STOP,14.485494,35.8342873,Stop_792,Stop_791,Stop_792_to_Stop_791
5652,117,Mqabba - Mater Dei,Midri,Hal Safi,"Monday, Tuesday, Wednesday, Thursday, Friday",05:20,06:36,07:36,08:36,09:30,10:30,11:30,12:30,13:30,14:30,15:30,16:30,17:30,18:30,19:30,20:24,,,,,,,,,,,,,,,,,,,,,,,,,,,,,,,,,,,,,,,,,,,,,,,,,,,,,,,,,,,,,,,MALTA STOP,16,Midri - Hal Safi - MALTA STOP,14.4860448,35.8355292,Stop_791,Stop_801,Stop_791_to_Stop_801
5653,117,Mqabba - Mater Dei,Isfar,Hal Safi,"Monday, Tuesday, Wednesday, Thursday, Friday",05:21,06:37,07:37,08:37,09:31,10:31,11:31,12:31,13:31,14:31,15:31,16:31,17:31,18:31,19:31,20:24,,,,,,,,,,,,,,,,,,,,,,,,,,,,,,,,,,,,,,,,,,,,,,,,,,,,,,,,,,,,,,,MALTA STOP,16,Isfar - Hal Safi - MALTA STOP,14.4838933,35.837079,Stop_801,Stop_802,Stop_801_to_Stop_802
5654,117,Mqabba - Mater Dei,Benedittu,Hal Kirkop,"Monday, Tuesday, Wednesday, Thursday, Friday",05:21,06:38,07:38,08:38,09:31,10:31,11:31,12:31,13:31,14:31,15:31,16:31,17:31,18:31,19:31,20:25,,,,,,,,,,,,,,,,,,,,,,,,,,,,,,,,,,,,,,,,,,,,,,,,,,,,,,,,,,,,,,,MALTA STOP,16,Benedittu - Hal Kirkop - MALTA STOP,14.4832657,35.8380867,Stop_802,Stop_789,Stop_802_to_Stop_789
5655,117,Mqabba - Mater Dei,Artillerija,Hal Kirkop,"Monday, Tuesday, Wednesday, Thursday, Friday",05:22,06:38,07:38,08:38,09:32,10:32,11:32,12:32,13:32,14:32,15:32,16:32,17:32,18:32,19:32,20:25,,,,,,,,,,,,,,,,,,,,,,,,,,,,,,,,,,,,,,,,,,,,,,,,,,,,,,,,,,,,,,,MALTA STOP,16,Artillerija - Hal Kirkop - MALTA STOP,14.4833091,35.8393803,Stop_789,Stop_788,Stop_789_to_Stop_788
5656,117,Mqabba - Mater Dei,Karwija,Hal Kirkop,"Monday, Tuesday, Wednesday, Thursday, Friday",05:23,06:39,07:39,08:39,09:33,10:33,11:33,12:33,13:33,14:33,15:33,16:33,17:33,18:33,19:33,20:26,,,,,,,,,,,,,,,,,,,,,,,,,,,,,,,,,,,,,,,,,,,,,,,,,,,,,,,,,,,,,,,MALTA STOP,16,Karwija - Hal Kirkop - MALTA STOP,14.4833386,35.840848,Stop_788,Stop_787,Stop_788_to_Stop_787
5657,117,Mqabba - Mater Dei,Kirkop,Hal Kirkop,"Monday, Tuesday, Wednesday, Thursday, Friday",05:23,06:40,07:40,08:40,09:33,10:33,11:33,12:33,13:33,14:33,15:33,16:33,17:33,18:33,19:33,20:26,,,,,,,,,,,,,,,,,,,,,,,,,,,,,,,,,,,,,,,,,,,,,,,,,,,,,,,,,,,,,,,MALTA STOP,16,Kirkop - Hal Kirkop - MALTA STOP,14.4832998,35.8414177,Stop_787,Stop_803,Stop_787_to_Stop_803
5658,117,Mqabba - Mater Dei,Cremona,Hal Kirkop,"Monday, Tuesday, Wednesday, Thursday, Friday",05:24,06:41,07:41,08:41,09:34,10:34,11:34,12:34,13:34,14:34,15:34,16:34,17:34,18:34,19:34,20:27,,,,,,,,,,,,,,,,,,,,,,,,,,,,,,,,,,,,,,,,,,,,,,,,,,,,,,,,,,,,,,,MALTA STOP,16,Cremona - Hal Kirkop - MALTA STOP,14.4825956,35.8432234,Stop_803,Stop_804,Stop_803_to_Stop_804
5659,117,Mqabba - Mater Dei,Barrieri,Hal Kirkop,"Monday, Tuesday, Wednesday, Thursday, Friday",05:25,06:42,07:42,08:42,09:35,10:35,11:35,12:35,13:35,14:35,15:35,16:35,17:35,18:35,19:35,20:27,,,,,,,,,,,,,,,,,,,,,,,,,,,,,,,,,,,,,,,,,,,,,,,,,,,,,,,,,,,,,,,MALTA STOP,16,Barrieri - Hal Kirkop - MALTA STOP,14.4839421,35.8444823,Stop_804,Stop_785,Stop_804_to_Stop_785
5660,117,Mqabba - Mater Dei,Menhir,Hal Kirkop,"Monday, Tuesday, Wednesday, Thursday, Friday",05:26,06:42,07:42,08:42,09:36,10:36,11:36,12:36,13:36,14:36,15:36,16:36,17:36,18:36,19:36,20:28,,,,,,,,,,,,,,,,,,,,,,,,,,,,,,,,,,,,,,,,,,,,,,,,,,,,,,,,,,,,,,,MALTA STOP,16,Menhir - Hal Kirkop - MALTA STOP,14.4856084,35.8448607,Stop_785,Stop_784,Stop_785_to_Stop_784
5661,117,Mqabba - Mater Dei,Mina,Hal Kirkop,"Monday, Tuesday, Wednesday, Thursday, Friday",05:26,06:43,07:43,08:43,09:36,10:36,11:36,12:36,13:36,14:36,15:36,16:36,17:36,18:36,19:36,20:29,,,,,,,,,,,,,,,,,,,,,,,,,,,,,,,,,,,,,,,,,,,,,,,,,,,,,,,,,,,,,,,MALTA STOP,16,Mina - Hal Kirkop - MALTA STOP,14.4876448,35.8467135,Stop_784,Stop_783,Stop_784_to_Stop_783
5662,117,Mqabba - Mater Dei,Cintra,Hal Luqa,"Monday, Tuesday, Wednesday, Thursday, Friday",05:29,06:46,07:46,08:46,09:39,10:39,11:39,12:39,13:39,14:39,15:39,16:39,17:39,18:39,19:39,20:30,,,,,,,,,,,,,,,,,,,,,,,,,,,,,,,,,,,,,,,,,,,,,,,,,,,,,,,,,,,,,,,MALTA STOP,16,Cintra - Hal Luqa - MALTA STOP,14.4933752,35.8520429,Stop_783,Stop_29,Stop_783_to_Stop_29
5663,117,Mqabba - Mater Dei,Airport 3,Hal Luqa,"Monday, Tuesday, Wednesday, Thursday, Friday",05:31,06:50,07:50,08:50,09:41,10:41,11:41,12:41,13:41,14:41,15:41,16:41,17:41,18:41,19:41,20:33,,,,,,,,,,,,,,,,,,,,,,,,,,,,,,,,,,,,,,,,,,,,,,,,,,,,,,,,,,,,,,,MALTA STOP,16,Airport 3 - Hal Luqa - MALTA STOP,14.4967201,35.8488557,Stop_29,Stop_1,Stop_29_to_Stop_1
5664,117,Mqabba - Mater Dei,Avjazzjoni,Hal Luqa,"Monday, Tuesday, Wednesday, Thursday, Friday",05:34,06:52,07:52,08:52,09:44,10:44,11:44,12:44,13:44,14:44,15:44,16:44,17:44,18:44,19:44,20:35,,,,,,,,,,,,,,,,,,,,,,,,,,,,,,,,,,,,,,,,,,,,,,,,,,,,,,,,,,,,,,,MALTA STOP,16,Avjazzjoni - Hal Luqa - MALTA STOP,14.4922893,35.8548313,Stop_1,Stop_782,Stop_1_to_Stop_782
5665,117,Mqabba - Mater Dei,Caraffa,Hal Luqa,"Monday, Tuesday, Wednesday, Thursday, Friday",05:35,06:54,07:54,08:54,09:45,10:45,11:45,12:45,13:45,14:45,15:45,16:45,17:45,18:45,19:45,20:36,,,,,,,,,,,,,,,,,,,,,,,,,,,,,,,,,,,,,,,,,,,,,,,,,,,,,,,,,,,,,,,MALTA STOP,16,Caraffa - Hal Luqa - MALTA STOP,14.4882565,35.8568299,Stop_782,Stop_780,Stop_782_to_Stop_780
5666,117,Mqabba - Mater Dei,Luqa,Hal Luqa,"Monday, Tuesday, Wednesday, Thursday, Friday",05:37,06:56,07:56,08:56,09:47,10:47,11:47,12:47,13:47,14:47,15:47,16:47,17:47,18:47,19:47,20:37,,,,,,,,,,,,,,,,,,,,,,,,,,,,,,,,,,,,,,,,,,,,,,,,,,,,,,,,,,,,,,,MALTA STOP,16,Luqa - Hal Luqa - MALTA STOP,14.4890343,35.8597222,Stop_780,Stop_1037,Stop_780_to_Stop_1037
5667,117,Mqabba - Mater Dei,Taljana,Hal Luqa,"Monday, Tuesday, Wednesday, Thursday, Friday",05:38,06:57,07:57,08:57,09:48,10:48,11:48,12:48,13:48,14:48,15:48,16:48,17:48,18:48,19:48,20:38,,,,,,,,,,,,,,,,,,,,,,,,,,,,,,,,,,,,,,,,,,,,,,,,,,,,,,,,,,,,,,,MALTA STOP,16,Taljana - Hal Luqa - MALTA STOP,14.4855702,35.8603526,Stop_1037,Stop_177,Stop_1037_to_Stop_177
5668,117,Mqabba - Mater Dei,Schinas,Hal Farrug,"Monday, Tuesday, Wednesday, Thursday, Friday",05:39,06:59,07:59,08:59,09:49,10:49,11:49,12:49,13:49,14:49,15:49,16:49,17:49,18:49,19:49,20:39,,,,,,,,,,,,,,,,,,,,,,,,,,,,,,,,,,,,,,,,,,,,,,,,,,,,,,,,,,,,,,,MALTA STOP,16,Schinas - Hal Farrug - MALTA STOP,14.4775705,35.8635925,Stop_177,Stop_175,Stop_177_to_Stop_175
5669,117,Mqabba - Mater Dei,Farrug,Hal Farrug,"Monday, Tuesday, Wednesday, Thursday, Friday",05:40,07:00,08:00,09:00,09:50,10:50,11:50,12:50,13:50,14:50,15:50,16:50,17:50,18:50,19:50,20:40,,,,,,,,,,,,,,,,,,,,,,,,,,,,,,,,,,,,,,,,,,,,,,,,,,,,,,,,,,,,,,,MALTA STOP,16,Farrug - Hal Farrug - MALTA STOP,14.4807103,35.8694297,Stop_175,Stop_3,Stop_175_to_Stop_3
5670,117,Mqabba - Mater Dei,Ingieret,San Vincenz,"Monday, Tuesday, Wednesday, Thursday, Friday",05:42,07:02,08:02,09:02,09:52,10:52,11:52,12:52,13:52,14:52,15:52,16:52,17:52,18:52,19:52,20:41,,,,,,,,,,,,,,,,,,,,,,,,,,,,,,,,,,,,,,,,,,,,,,,,,,,,,,,,,,,,,,,MALTA STOP,16,Ingieret - San Vincenz - MALTA STOP,14.4826734,35.8709795,Stop_3,Stop_1038,Stop_3_to_Stop_1038
5671,117,Mqabba - Mater Dei,Marsa Park & Ride 6,Il-Marsa,"Monday, Tuesday, Wednesday, Thursday, Friday",05:47,07:08,08:08,09:08,09:57,10:57,11:57,12:57,13:57,14:57,15:57,16:57,17:57,18:57,19:57,20:45,,,,,,,,,,,,,,,,,,,,,,,,,,,,,,,,,,,,,,,,,,,,,,,,,,,,,,,,,,,,,,,MALTA STOP,16,Marsa Park & Ride 6 - Il-Marsa - MALTA STOP,14.4841929,35.878272,Stop_1038,Stop_725,Stop_1038_to_Stop_725
5672,117,Mqabba - Mater Dei,Qaddisin,Il-Marsa,"Monday, Tuesday, Wednesday, Thursday, Friday",05:49,07:10,08:10,09:09,09:58,10:58,11:58,12:58,13:58,14:58,15:58,16:58,17:58,18:58,19:58,20:46,,,,,,,,,,,,,,,,,,,,,,,,,,,,,,,,,,,,,,,,,,,,,,,,,,,,,,,,,,,,,,,MALTA STOP,16,Qaddisin - Il-Marsa - MALTA STOP,14.4848178,35.8806216,Stop_725,Stop_111,Stop_725_to_Stop_111
5673,117,Mqabba - Mater Dei,Qroqq 5,Is-Swatar,"Monday, Tuesday, Wednesday, Thursday, Friday",06:01,07:22,08:22,09:16,10:05,11:05,12:05,13:05,14:05,15:05,16:05,17:05,18:04,19:04,20:04,20:52,,,,,,,,,,,,,,,,,,,,,,,,,,,,,,,,,,,,,,,,,,,,,,,,,,,,,,,,,,,,,,,MALTA STOP,16,Qroqq 5 - Is-Swatar - MALTA STOP,14.4829079,35.8998156,Stop_111,Stop_5,Stop_111_to_Stop_5
5674,117,Mqabba - Mater Dei,Universita 1,L-Imsida,"Monday, Tuesday, Wednesday, Thursday, Friday",06:05,07:26,08:26,09:18,10:07,11:07,12:07,13:07,14:07,15:07,16:07,17:07,18:06,19:06,20:06,20:54,,,,,,,,,,,,,,,,,,,,,,,,,,,,,,,,,,,,,,,,,,,,,,,,,,,,,,,,,,,,,,,MALTA STOP,16,Universita 1 - L-Imsida - MALTA STOP,14.479873,35.9014288,Stop_5,Stop_6,Stop_5_to_Stop_6
5675,117,Mqabba - Mater Dei,Mater Dei 2,Mater Dei,"Monday, Tuesday, Wednesday, Thursday, Friday",06:07,07:28,08:28,09:20,10:09,11:09,12:09,13:09,14:09,15:09,16:09,17:09,18:07,19:07,20:07,20:55,,,,,,,,,,,,,,,,,,,,,,,,,,,,,,,,,,,,,,,,,,,,,,,,,,,,,,,,,,,,,,,MALTA STOP,16,Mater Dei 2 - Mater Dei - MALTA STOP,14.4765783,35.9008452,Stop_6,Stop_7,Stop_6_to_Stop_7
5676,117,Mqabba - Mater Dei,Sptar 1,Mater Dei,"Monday, Tuesday, Wednesday, Thursday, Friday",06:09,07:30,08:30,09:21,10:10,11:10,12:10,13:10,14:10,15:10,16:10,17:10,18:08,19:08,20:08,20:56,,,,,,,,,,,,,,,,,,,,,,,,,,,,,,,,,,,,,,,,,,,,,,,,,,,,,,,,,,,,,,,MALTA STOP,16,Sptar 1 - Mater Dei - MALTA STOP,14.4756107,35.9019175,Stop_7,,
5971,122,Valletta - Mater Dei,Valletta A1,Il-Belt Valletta,"Monday, Tuesday, Wednesday, Thursday, Friday",05:35,06:05,06:35,07:05,07:35,08:05,08:35,09:05,09:35,10:05,10:35,11:05,11:35,12:05,12:35,13:05,13:35,14:05,14:35,15:05,15:35,16:05,16:35,17:05,17:35,18:05,18:35,19:05,19:35,20:05,20:35,,,,,,,,,,,,,,,,,,,,,,,,,,,,,,,,,,,,,,,,,,,,,,,,MALTA STOP,31,Valletta A1 - Il-Belt Valletta - MALTA STOP,14.5086572,35.8950762,Stop_223,Stop_1048,Stop_223_to_Stop_1048
5972,122,Valletta - Mater Dei,Boffa,Il-Floriana,"Monday, Tuesday, Wednesday, Thursday, Friday",05:36,06:06,06:36,07:06,07:36,08:06,08:36,09:06,09:36,10:06,10:36,11:06,11:36,12:06,12:36,13:06,13:36,14:06,14:36,15:06,15:36,16:06,16:36,17:06,17:36,18:06,18:36,19:06,19:36,20:06,20:36,,,,,,,,,,,,,,,,,,,,,,,,,,,,,,,,,,,,,,,,,,,,,,,,MALTA STOP,31,Boffa - Il-Floriana - MALTA STOP,14.5074999,35.8922661,Stop_1048,Stop_1049,Stop_1048_to_Stop_1049
5973,122,Valletta - Mater Dei,Polyclinic,Il-Floriana,"Monday, Tuesday, Wednesday, Thursday, Friday",05:37,06:07,06:37,07:07,07:37,08:07,08:37,09:07,09:37,10:07,10:37,11:07,11:37,12:07,12:37,13:07,13:37,14:07,14:37,15:07,15:37,16:07,16:37,17:07,17:37,18:07,18:37,19:07,19:37,20:07,20:37,,,,,,,,,,,,,,,,,,,,,,,,,,,,,,,,,,,,,,,,,,,,,,,,MALTA STOP,31,Polyclinic - Il-Floriana - MALTA STOP,14.5051187,35.8907234,Stop_1049,Stop_172,Stop_1049_to_Stop_172
5974,122,Valletta - Mater Dei,Bombi 3,Il-Floriana,"Monday, Tuesday, Wednesday, Thursday, Friday",05:38,06:08,06:39,07:09,07:39,08:09,08:39,09:09,09:39,10:09,10:39,11:09,11:39,12:09,12:39,13:09,13:39,14:09,14:39,15:09,15:39,16:09,16:39,17:09,17:39,18:09,18:39,19:08,19:38,20:08,20:38,,,,,,,,,,,,,,,,,,,,,,,,,,,,,,,,,,,,,,,,,,,,,,,,MALTA STOP,31,Bombi 3 - Il-Floriana - MALTA STOP,14.5008857,35.8896506,Stop_172,Stop_488,Stop_172_to_Stop_488
5975,122,Valletta - Mater Dei,Blata L-Bajda 3,Il-Hamrun,"Monday, Tuesday, Wednesday, Thursday, Friday",05:40,06:10,06:41,07:11,07:41,08:11,08:41,09:11,09:41,10:11,10:41,11:11,11:41,12:11,12:41,13:11,13:41,14:11,14:41,15:11,15:41,16:11,16:41,17:11,17:41,18:11,18:41,19:09,19:39,20:09,20:39,,,,,,,,,,,,,,,,,,,,,,,,,,,,,,,,,,,,,,,,,,,,,,,,MALTA STOP,31,Blata L-Bajda 3 - Il-Hamrun - MALTA STOP,14.4960959,35.8867766,Stop_488,Stop_489,Stop_488_to_Stop_489
5976,122,Valletta - Mater Dei,Mile End 2,Il-Hamrun,"Monday, Tuesday, Wednesday, Thursday, Friday",05:40,06:10,06:42,07:12,07:42,08:12,08:42,09:12,09:42,10:12,10:42,11:12,11:42,12:12,12:42,13:12,13:42,14:12,14:42,15:12,15:42,16:12,16:42,17:12,17:42,18:12,18:42,19:10,19:40,20:10,20:40,,,,,,,,,,,,,,,,,,,,,,,,,,,,,,,,,,,,,,,,,,,,,,,,MALTA STOP,31,Mile End 2 - Il-Hamrun - MALTA STOP,14.4942579,35.8863207,Stop_489,Stop_555,Stop_489_to_Stop_555
5977,122,Valletta - Mater Dei,Nuzzo,Il-Hamrun,"Monday, Tuesday, Wednesday, Thursday, Friday",05:41,06:11,06:42,07:12,07:42,08:12,08:42,09:12,09:42,10:12,10:42,11:12,11:42,12:12,12:42,13:12,13:42,14:12,14:42,15:12,15:42,16:12,16:42,17:12,17:42,18:12,18:42,19:10,19:40,20:10,20:40,,,,,,,,,,,,,,,,,,,,,,,,,,,,,,,,,,,,,,,,,,,,,,,,MALTA STOP,31,Nuzzo - Il-Hamrun - MALTA STOP,14.4932118,35.8878017,Stop_555,Stop_556,Stop_555_to_Stop_556
5978,122,Valletta - Mater Dei,San Luqa,Gwardamangia,"Monday, Tuesday, Wednesday, Thursday, Friday",05:43,06:13,06:45,07:15,07:45,08:15,08:45,09:15,09:45,10:15,10:45,11:15,11:45,12:15,12:45,13:15,13:45,14:15,14:45,15:15,15:45,16:15,16:45,17:15,17:45,18:15,18:45,19:13,19:43,20:13,20:43,,,,,,,,,,,,,,,,,,,,,,,,,,,,,,,,,,,,,,,,,,,,,,,,MALTA STOP,31,San Luqa - Gwardamangia - MALTA STOP,14.4937898,35.8929299,Stop_556,Stop_557,Stop_556_to_Stop_557
5979,122,Valletta - Mater Dei,Mimosa,Gwardamangia,"Monday, Tuesday, Wednesday, Thursday, Friday",05:44,06:14,06:46,07:16,07:46,08:16,08:46,09:16,09:46,10:16,10:46,11:16,11:46,12:16,12:46,13:16,13:46,14:16,14:46,15:16,15:46,16:16,16:46,17:16,17:46,18:16,18:46,19:14,19:44,20:14,20:44,,,,,,,,,,,,,,,,,,,,,,,,,,,,,,,,,,,,,,,,,,,,,,,,MALTA STOP,31,Mimosa - Gwardamangia - MALTA STOP,14.4913544,35.8903017,Stop_557,Stop_558,Stop_557_to_Stop_558
5980,122,Valletta - Mater Dei,Sciberras,Gwardamangia,"Monday, Tuesday, Wednesday, Thursday, Friday",05:45,06:15,06:47,07:17,07:47,08:17,08:47,09:17,09:47,10:17,10:47,11:17,11:47,12:17,12:47,13:17,13:47,14:17,14:47,15:17,15:47,16:17,16:47,17:17,17:47,18:17,18:47,19:14,19:44,20:14,20:44,,,,,,,,,,,,,,,,,,,,,,,,,,,,,,,,,,,,,,,,,,,,,,,,MALTA STOP,31,Sciberras - Gwardamangia - MALTA STOP,14.4902077,35.8888415,Stop_558,Stop_559,Stop_558_to_Stop_559
5981,122,Valletta - Mater Dei,Guze,Gwardamangia,"Monday, Tuesday, Wednesday, Thursday, Friday",05:45,06:15,06:48,07:18,07:48,08:18,08:48,09:18,09:48,10:18,10:48,11:18,11:48,12:18,12:48,13:18,13:48,14:18,14:48,15:18,15:48,16:18,16:48,17:18,17:48,18:18,18:48,19:15,19:45,20:15,20:45,,,,,,,,,,,,,,,,,,,,,,,,,,,,,,,,,,,,,,,,,,,,,,,,MALTA STOP,31,Guze - Gwardamangia - MALTA STOP,14.4892649,35.8886926,Stop_559,Stop_560,Stop_559_to_Stop_560
5982,122,Valletta - Mater Dei,Fatati,Santa Venera,"Monday, Tuesday, Wednesday, Thursday, Friday",05:46,06:16,06:49,07:19,07:49,08:19,08:49,09:19,09:49,10:19,10:49,11:19,11:49,12:19,12:49,13:19,13:49,14:19,14:49,15:19,15:49,16:19,16:49,17:19,17:49,18:19,18:49,19:15,19:45,20:15,20:45,,,,,,,,,,,,,,,,,,,,,,,,,,,,,,,,,,,,,,,,,,,,,,,,MALTA STOP,31,Fatati - Santa Venera - MALTA STOP,14.4876154,35.8902637,Stop_560,Stop_561,Stop_560_to_Stop_561
5983,122,Valletta - Mater Dei,Villambrosa,Santa Venera,"Monday, Tuesday, Wednesday, Thursday, Friday",05:47,06:17,06:50,07:20,07:50,08:20,08:50,09:20,09:50,10:20,10:50,11:20,11:50,12:20,12:50,13:20,13:50,14:20,14:50,15:20,15:50,16:20,16:50,17:20,17:50,18:20,18:50,19:16,19:46,20:16,20:46,,,,,,,,,,,,,,,,,,,,,,,,,,,,,,,,,,,,,,,,,,,,,,,,MALTA STOP,31,Villambrosa - Santa Venera - MALTA STOP,14.485593,35.8917979,Stop_561,Stop_111,Stop_561_to_Stop_111
5984,122,Valletta - Mater Dei,Qroqq 5,Is-Swatar,"Monday, Tuesday, Wednesday, Thursday, Friday",05:51,06:21,06:55,07:25,07:55,08:25,08:55,09:25,09:55,10:25,10:55,11:25,11:55,12:25,12:55,13:25,13:55,14:25,14:55,15:25,15:55,16:25,16:55,17:25,17:55,18:25,18:55,19:20,19:50,20:20,20:50,,,,,,,,,,,,,,,,,,,,,,,,,,,,,,,,,,,,,,,,,,,,,,,,MALTA STOP,31,Qroqq 5 - Is-Swatar - MALTA STOP,14.4829079,35.8998156,Stop_111,Stop_5,Stop_111_to_Stop_5
5985,122,Valletta - Mater Dei,Universita 1,L-Imsida,"Monday, Tuesday, Wednesday, Thursday, Friday",05:53,06:23,06:58,07:28,07:58,08:28,08:58,09:28,09:58,10:28,10:58,11:28,11:58,12:28,12:58,13:28,13:58,14:28,14:58,15:28,15:58,16:28,16:58,17:28,17:58,18:28,18:58,19:22,19:52,20:22,20:52,,,,,,,,,,,,,,,,,,,,,,,,,,,,,,,,,,,,,,,,,,,,,,,,MALTA STOP,31,Universita 1 - L-Imsida - MALTA STOP,14.479873,35.9014288,Stop_5,Stop_6,Stop_5_to_Stop_6
5986,122,Valletta - Mater Dei,Mater Dei 2,Mater Dei,"Monday, Tuesday, Wednesday, Thursday, Friday",05:54,06:24,06:59,07:29,07:59,08:29,08:59,09:29,09:59,10:29,10:59,11:29,11:59,12:29,12:59,13:29,13:59,14:29,14:59,15:29,15:59,16:29,16:59,17:29,17:59,18:29,18:59,19:24,19:54,20:24,20:54,,,,,,,,,,,,,,,,,,,,,,,,,,,,,,,,,,,,,,,,,,,,,,,,MALTA STOP,31,Mater Dei 2 - Mater Dei - MALTA STOP,14.4765783,35.9008452,Stop_6,Stop_7,Stop_6_to_Stop_7
5987,122,Valletta - Mater Dei,Sptar 1,Mater Dei,"Monday, Tuesday, Wednesday, Thursday, Friday",05:56,06:26,07:01,07:31,08:01,08:31,09:01,09:31,10:01,10:31,11:01,11:31,12:01,12:31,13:01,13:31,14:01,14:31,15:01,15:31,16:01,16:31,17:01,17:31,18:01,18:31,19:01,19:25,19:55,20:25,20:55,,,,,,,,,,,,,,,,,,,,,,,,,,,,,,,,,,,,,,,,,,,,,,,,MALTA STOP,31,Sptar 1 - Mater Dei - MALTA STOP,14.4756107,35.9019175,Stop_7,,
5988,122,Mater Dei - Valletta,Sptar 3,Mater Dei,"Monday, Tuesday, Wednesday, Thursday, Friday",05:30,06:00,06:30,07:00,07:30,08:00,08:30,09:00,09:30,10:00,10:30,11:00,11:30,12:00,12:30,13:00,13:30,14:00,14:30,15:00,15:30,16:00,16:30,17:00,17:30,18:00,18:30,19:00,19:30,20:00,20:30,,,,,,,,,,,,,,,,,,,,,,,,,,,,,,,,,,,,,,,,,,,,,,,,MALTA STOP,31,Sptar 3 - Mater Dei - MALTA STOP,14.4754663,35.9017872,Stop_27,Stop_422,Stop_27_to_Stop_422
5989,122,Mater Dei - Valletta,Universita 2,L-Imsida,"Monday, Tuesday, Wednesday, Thursday, Friday",05:33,06:03,06:33,07:04,07:34,08:04,08:34,09:04,09:34,10:04,10:34,11:04,11:34,12:04,12:34,13:04,13:34,14:04,14:34,15:04,15:34,16:04,16:34,17:04,17:34,18:04,18:32,19:02,19:32,20:02,20:32,,,,,,,,,,,,,,,,,,,,,,,,,,,,,,,,,,,,,,,,,,,,,,,,MALTA STOP,31,Universita 2 - L-Imsida - MALTA STOP,14.48036,35.9013624,Stop_422,Stop_561,Stop_422_to_Stop_561
5990,122,Mater Dei - Valletta,Villambrosa,Santa Venera,"Monday, Tuesday, Wednesday, Thursday, Friday",05:37,06:07,06:37,07:11,07:41,08:11,08:41,09:11,09:41,10:11,10:41,11:11,11:41,12:11,12:41,13:11,13:41,14:11,14:41,15:11,15:41,16:11,16:41,17:11,17:41,18:11,18:37,19:07,19:37,20:07,20:37,,,,,,,,,,,,,,,,,,,,,,,,,,,,,,,,,,,,,,,,,,,,,,,,MALTA STOP,31,Villambrosa - Santa Venera - MALTA STOP,14.485593,35.8917979,Stop_561,Stop_560,Stop_561_to_Stop_560
5991,122,Mater Dei - Valletta,Fatati,Santa Venera,"Monday, Tuesday, Wednesday, Thursday, Friday",05:38,06:08,06:38,07:12,07:42,08:12,08:42,09:12,09:42,10:12,10:42,11:12,11:42,12:12,12:42,13:12,13:42,14:12,14:42,15:12,15:42,16:12,16:42,17:12,17:42,18:12,18:38,19:08,19:38,20:08,20:38,,,,,,,,,,,,,,,,,,,,,,,,,,,,,,,,,,,,,,,,,,,,,,,,MALTA STOP,31,Fatati - Santa Venera - MALTA STOP,14.4876154,35.8902637,Stop_560,Stop_559,Stop_560_to_Stop_559
5992,122,Mater Dei - Valletta,Guze,Tal-Pieta,"Monday, Tuesday, Wednesday, Thursday, Friday",05:39,06:09,06:39,07:13,07:43,08:13,08:43,09:13,09:43,10:13,10:43,11:13,11:43,12:13,12:43,13:13,13:43,14:13,14:43,15:13,15:43,16:13,16:43,17:13,17:43,18:13,18:38,19:08,19:38,20:08,20:38,,,,,,,,,,,,,,,,,,,,,,,,,,,,,,,,,,,,,,,,,,,,,,,,MALTA STOP,31,Guze - Tal-Pieta - MALTA STOP,14.4892649,35.8886926,Stop_559,Stop_557,Stop_559_to_Stop_557
5993,122,Mater Dei - Valletta,Mimosa,Il-Hamrun,"Monday, Tuesday, Wednesday, Thursday, Friday",05:40,06:10,06:40,07:14,07:44,08:14,08:44,09:14,09:44,10:14,10:44,11:14,11:44,12:14,12:44,13:14,13:44,14:14,14:44,15:14,15:44,16:14,16:44,17:14,17:44,18:14,18:39,19:09,19:39,20:09,20:39,,,,,,,,,,,,,,,,,,,,,,,,,,,,,,,,,,,,,,,,,,,,,,,,MALTA STOP,31,Mimosa - Il-Hamrun - MALTA STOP,14.4913544,35.8903017,Stop_557,Stop_573,Stop_557_to_Stop_573
5994,122,Mater Dei - Valletta,Gwardamangia,Tal-Pieta,"Monday, Tuesday, Wednesday, Thursday, Friday",05:41,06:11,06:41,07:15,07:45,08:15,08:45,09:15,09:45,10:15,10:45,11:15,11:45,12:15,12:45,13:15,13:45,14:15,14:45,15:15,15:45,16:15,16:45,17:15,17:45,18:15,18:39,19:09,19:39,20:09,20:39,,,,,,,,,,,,,,,,,,,,,,,,,,,,,,,,,,,,,,,,,,,,,,,,MALTA STOP,31,Gwardamangia - Tal-Pieta - MALTA STOP,14.4921527,35.8912889,Stop_573,Stop_556,Stop_573_to_Stop_556
5995,122,Mater Dei - Valletta,San Luqa,Tal-Pieta,"Monday, Tuesday, Wednesday, Thursday, Friday",05:42,06:12,06:42,07:16,07:46,08:16,08:46,09:16,09:46,10:16,10:46,11:16,11:46,12:16,12:46,13:16,13:46,14:16,14:46,15:16,15:46,16:16,16:46,17:16,17:46,18:16,18:40,19:10,19:40,20:10,20:40,,,,,,,,,,,,,,,,,,,,,,,,,,,,,,,,,,,,,,,,,,,,,,,,MALTA STOP,31,San Luqa - Tal-Pieta - MALTA STOP,14.4937898,35.8929299,Stop_556,Stop_555,Stop_556_to_Stop_555
5996,122,Mater Dei - Valletta,Nuzzo,Il-Hamrun,"Monday, Tuesday, Wednesday, Thursday, Friday",05:44,06:14,06:44,07:19,07:49,08:19,08:49,09:19,09:49,10:19,10:49,11:19,11:49,12:19,12:49,13:19,13:49,14:19,14:49,15:19,15:49,16:19,16:49,17:19,17:49,18:19,18:42,19:12,19:42,20:12,20:42,,,,,,,,,,,,,,,,,,,,,,,,,,,,,,,,,,,,,,,,,,,,,,,,MALTA STOP,31,Nuzzo - Il-Hamrun - MALTA STOP,14.4932118,35.8878017,Stop_555,Stop_504,Stop_555_to_Stop_504
5997,122,Mater Dei - Valletta,Mile End 1,Il-Hamrun,"Monday, Tuesday, Wednesday, Thursday, Friday",05:44,06:14,06:44,07:20,07:50,08:20,08:50,09:20,09:50,10:20,10:50,11:20,11:50,12:20,12:50,13:20,13:50,14:20,14:50,15:20,15:50,16:20,16:50,17:20,17:50,18:20,18:43,19:13,19:43,20:13,20:43,,,,,,,,,,,,,,,,,,,,,,,,,,,,,,,,,,,,,,,,,,,,,,,,MALTA STOP,31,Mile End 1 - Il-Hamrun - MALTA STOP,14.4949337,35.8865555,Stop_504,Stop_505,Stop_504_to_Stop_505
5998,122,Mater Dei - Valletta,Blata L-Bajda 1,Il-Hamrun,"Monday, Tuesday, Wednesday, Thursday, Friday",05:45,06:15,06:45,07:21,07:51,08:21,08:51,09:21,09:51,10:21,10:51,11:21,11:51,12:21,12:51,13:21,13:51,14:21,14:51,15:21,15:51,16:21,16:51,17:21,17:51,18:21,18:43,19:13,19:43,20:13,20:43,,,,,,,,,,,,,,,,,,,,,,,,,,,,,,,,,,,,,,,,,,,,,,,,MALTA STOP,31,Blata L-Bajda 1 - Il-Hamrun - MALTA STOP,14.4968486,35.8874387,Stop_505,Stop_186,Stop_505_to_Stop_186
5999,122,Mater Dei - Valletta,Bombi 2,Il-Floriana,"Monday, Tuesday, Wednesday, Thursday, Friday",05:46,06:16,06:46,07:23,07:53,08:23,08:53,09:23,09:53,10:23,10:53,11:23,11:53,12:23,12:53,13:23,13:53,14:23,14:53,15:23,15:53,16:23,16:53,17:23,17:53,18:23,18:45,19:15,19:45,20:15,20:45,,,,,,,,,,,,,,,,,,,,,,,,,,,,,,,,,,,,,,,,,,,,,,,,MALTA STOP,31,Bombi 2 - Il-Floriana - MALTA STOP,14.5007116,35.8897967,Stop_186,Stop_1050,Stop_186_to_Stop_1050
6000,122,Mater Dei - Valletta,Floriani,Il-Floriana,"Monday, Tuesday, Wednesday, Thursday, Friday",05:48,06:18,06:48,07:26,07:56,08:26,08:56,09:26,09:56,10:26,10:56,11:26,11:56,12:26,12:56,13:26,13:56,14:26,14:56,15:26,15:56,16:26,16:56,17:26,17:56,18:26,18:46,19:16,19:46,20:16,20:46,,,,,,,,,,,,,,,,,,,,,,,,,,,,,,,,,,,,,,,,,,,,,,,,MALTA STOP,31,Floriani - Il-Floriana - MALTA STOP,14.506764,35.8926934,Stop_1050,Stop_190,Stop_1050_to_Stop_190
6001,122,Mater Dei - Valletta,Valletta 18,Il-Belt Valletta,"Monday, Tuesday, Wednesday, Thursday, Friday",05:50,06:20,06:50,07:28,07:58,08:28,08:58,09:28,09:58,10:28,10:58,11:28,11:58,12:28,12:58,13:28,13:58,14:28,14:58,15:28,15:58,16:28,16:58,17:28,17:58,18:28,18:48,19:18,19:48,20:18,20:48,,,,,,,,,,,,,,,,,,,,,,,,,,,,,,,,,,,,,,,,,,,,,,,,MALTA STOP,31,Valletta 18 - Il-Belt Valletta - MALTA STOP,14.5080061,35.8952138,Stop_190,,
6102,135,Marsaskala - Mater Dei,Iskal,Marsaskala,"Monday, Tuesday, Wednesday, Thursday, Friday",06:05,07:05,08:05,09:05,10:05,11:05,12:05,13:05,14:05,15:05,16:05,17:05,18:05,19:05,20:05,,,,,,,,,,,,,,,,,,,,,,,,,,,,,,,,,,,,,,,,,,,,,,,,,,,,,,,,,,,,,,,,MALTA STOP,15,Iskal - Marsaskala - MALTA STOP,14.5616215,35.8641262,Stop_83,Stop_84,Stop_83_to_Stop_84
6103,135,Marsaskala - Mater Dei,Harruba,Marsaskala,"Monday, Tuesday, Wednesday, Thursday, Friday",06:06,07:06,08:06,09:06,10:06,11:06,12:06,13:06,14:06,15:06,16:06,17:06,18:06,19:06,20:06,,,,,,,,,,,,,,,,,,,,,,,,,,,,,,,,,,,,,,,,,,,,,,,,,,,,,,,,,,,,,,,,MALTA STOP,15,Harruba - Marsaskala - MALTA STOP,14.5631249,35.8658803,Stop_84,Stop_85,Stop_84_to_Stop_85
6104,135,Marsaskala - Mater Dei,Bianco,Marsaskala,"Monday, Tuesday, Wednesday, Thursday, Friday",06:07,07:07,08:06,09:06,10:06,11:06,12:06,13:06,14:06,15:06,16:06,17:06,18:06,19:06,20:06,,,,,,,,,,,,,,,,,,,,,,,,,,,,,,,,,,,,,,,,,,,,,,,,,,,,,,,,,,,,,,,,MALTA STOP,15,Bianco - Marsaskala - MALTA STOP,14.5616716,35.8636567,Stop_85,Stop_86,Stop_85_to_Stop_86
6105,135,Marsaskala - Mater Dei,Vajrita,Marsaskala,"Monday, Tuesday, Wednesday, Thursday, Friday",06:08,07:08,08:07,09:07,10:07,11:07,12:07,13:07,14:07,15:07,16:07,17:07,18:07,19:07,20:07,,,,,,,,,,,,,,,,,,,,,,,,,,,,,,,,,,,,,,,,,,,,,,,,,,,,,,,,,,,,,,,,MALTA STOP,15,Vajrita - Marsaskala - MALTA STOP,14.5646632,35.8624459,Stop_86,Stop_82,Stop_86_to_Stop_82
6106,135,Marsaskala - Mater Dei,Xmiel,Marsaskala,"Monday, Tuesday, Wednesday, Thursday, Friday",06:08,07:09,08:08,09:08,10:08,11:08,12:08,13:08,14:08,15:08,16:08,17:08,18:08,19:08,20:07,,,,,,,,,,,,,,,,,,,,,,,,,,,,,,,,,,,,,,,,,,,,,,,,,,,,,,,,,,,,,,,,MALTA STOP,15,Xmiel - Marsaskala - MALTA STOP,14.566475,35.8625356,Stop_82,Stop_81,Stop_82_to_Stop_81
6107,135,Marsaskala - Mater Dei,Grigal,Marsaskala,"Monday, Tuesday, Wednesday, Thursday, Friday",06:09,07:10,08:09,09:09,10:09,11:09,12:09,13:09,14:09,15:09,16:09,17:09,18:09,19:09,20:08,,,,,,,,,,,,,,,,,,,,,,,,,,,,,,,,,,,,,,,,,,,,,,,,,,,,,,,,,,,,,,,,MALTA STOP,15,Grigal - Marsaskala - MALTA STOP,14.5695636,35.8629757,Stop_81,Stop_87,Stop_81_to_Stop_87
6108,135,Marsaskala - Mater Dei,Xehda,Marsaskala,"Monday, Tuesday, Wednesday, Thursday, Friday",06:10,07:11,08:09,09:09,10:09,11:09,12:09,13:09,14:09,15:09,16:09,17:09,18:09,19:09,20:08,,,,,,,,,,,,,,,,,,,,,,,,,,,,,,,,,,,,,,,,,,,,,,,,,,,,,,,,,,,,,,,,MALTA STOP,15,Xehda - Marsaskala - MALTA STOP,14.5701537,35.86102899999999,Stop_87,Stop_79,Stop_87_to_Stop_79
6109,135,Marsaskala - Mater Dei,Ashby,Marsaskala,"Monday, Tuesday, Wednesday, Thursday, Friday",06:11,07:11,08:10,09:10,10:10,11:10,12:10,13:10,14:10,15:10,16:10,17:10,18:10,19:10,20:09,,,,,,,,,,,,,,,,,,,,,,,,,,,,,,,,,,,,,,,,,,,,,,,,,,,,,,,,,,,,,,,,MALTA STOP,15,Ashby - Marsaskala - MALTA STOP,14.5693463,35.8591505,Stop_79,Stop_78,Stop_79_to_Stop_78
6110,135,Marsaskala - Mater Dei,Qaws,Marsaskala,"Monday, Tuesday, Wednesday, Thursday, Friday",06:11,07:12,08:10,09:10,10:10,11:10,12:10,13:10,14:10,15:10,16:10,17:10,18:10,19:10,20:09,,,,,,,,,,,,,,,,,,,,,,,,,,,,,,,,,,,,,,,,,,,,,,,,,,,,,,,,,,,,,,,,MALTA STOP,15,Qaws - Marsaskala - MALTA STOP,14.5689252,35.8581744,Stop_78,Stop_77,Stop_78_to_Stop_77
6111,135,Marsaskala - Mater Dei,Mahsel,Marsaskala,"Monday, Tuesday, Wednesday, Thursday, Friday",06:12,07:13,08:11,09:11,10:11,11:11,12:11,13:11,14:11,15:11,16:11,17:11,18:11,19:11,20:10,,,,,,,,,,,,,,,,,,,,,,,,,,,,,,,,,,,,,,,,,,,,,,,,,,,,,,,,,,,,,,,,MALTA STOP,15,Mahsel - Marsaskala - MALTA STOP,14.5668009,35.8555777,Stop_77,Stop_88,Stop_77_to_Stop_88
6112,135,Marsaskala - Mater Dei,Bajja,Marsaskala,"Monday, Tuesday, Wednesday, Thursday, Friday",06:12,07:13,08:11,09:11,10:11,11:11,12:11,13:11,14:11,15:11,16:11,17:11,18:11,19:11,20:10,,,,,,,,,,,,,,,,,,,,,,,,,,,,,,,,,,,,,,,,,,,,,,,,,,,,,,,,,,,,,,,,MALTA STOP,15,Bajja - Marsaskala - MALTA STOP,14.5649987,35.855439,Stop_88,Stop_75,Stop_88_to_Stop_75
6113,135,Marsaskala - Mater Dei,Noqra,Marsaskala,"Monday, Tuesday, Wednesday, Thursday, Friday",06:13,07:14,08:12,09:12,10:12,11:12,12:12,13:12,14:12,15:12,16:12,17:12,18:12,19:12,20:11,,,,,,,,,,,,,,,,,,,,,,,,,,,,,,,,,,,,,,,,,,,,,,,,,,,,,,,,,,,,,,,,MALTA STOP,15,Noqra - Marsaskala - MALTA STOP,14.5636308,35.8568415,Stop_75,Stop_74,Stop_75_to_Stop_74
6114,135,Marsaskala - Mater Dei,Vahla,Marsaskala,"Monday, Tuesday, Wednesday, Thursday, Friday",06:14,07:15,08:13,09:13,10:13,11:13,12:13,13:13,14:13,15:13,16:13,17:13,18:13,19:13,20:11,,,,,,,,,,,,,,,,,,,,,,,,,,,,,,,,,,,,,,,,,,,,,,,,,,,,,,,,,,,,,,,,MALTA STOP,15,Vahla - Marsaskala - MALTA STOP,14.5605795,35.8566579,Stop_74,Stop_73,Stop_74_to_Stop_73
6115,135,Marsaskala - Mater Dei,Mamo,Marsaskala,"Monday, Tuesday, Wednesday, Thursday, Friday",06:16,07:17,08:14,09:14,10:14,11:14,12:14,13:14,14:14,15:14,16:14,17:14,18:14,19:14,20:12,,,,,,,,,,,,,,,,,,,,,,,,,,,,,,,,,,,,,,,,,,,,,,,,,,,,,,,,,,,,,,,,MALTA STOP,15,Mamo - Marsaskala - MALTA STOP,14.555994,35.8552415,Stop_73,Stop_72,Stop_73_to_Stop_72
6116,135,Marsaskala - Mater Dei,Basli,Iz-Zejtun,"Monday, Tuesday, Wednesday, Thursday, Friday",06:16,07:18,08:14,09:14,10:14,11:14,12:14,13:14,14:14,15:14,16:14,17:14,18:14,19:14,20:13,,,,,,,,,,,,,,,,,,,,,,,,,,,,,,,,,,,,,,,,,,,,,,,,,,,,,,,,,,,,,,,,MALTA STOP,15,Basli - Iz-Zejtun - MALTA STOP,14.5537493,35.8562418,Stop_72,Stop_71,Stop_72_to_Stop_71
6117,135,Marsaskala - Mater Dei,Strejnu,Marsaskala,"Monday, Tuesday, Wednesday, Thursday, Friday",06:17,07:18,08:15,09:15,10:15,11:15,12:15,13:15,14:15,15:15,16:15,17:15,18:15,19:15,20:13,,,,,,,,,,,,,,,,,,,,,,,,,,,,,,,,,,,,,,,,,,,,,,,,,,,,,,,,,,,,,,,,MALTA STOP,15,Strejnu - Marsaskala - MALTA STOP,14.5512749,35.855969,Stop_71,Stop_89,Stop_71_to_Stop_89
6118,135,Marsaskala - Mater Dei,Xaghri,Iz-Zejtun,"Monday, Tuesday, Wednesday, Thursday, Friday",06:18,07:20,08:16,09:16,10:16,11:16,12:16,13:16,14:16,15:16,16:16,17:16,18:16,19:16,20:14,,,,,,,,,,,,,,,,,,,,,,,,,,,,,,,,,,,,,,,,,,,,,,,,,,,,,,,,,,,,,,,,MALTA STOP,15,Xaghri - Iz-Zejtun - MALTA STOP,14.5473175,35.8563798,Stop_89,Stop_70,Stop_89_to_Stop_70
6119,135,Marsaskala - Mater Dei,Herba,Iz-Zejtun,"Monday, Tuesday, Wednesday, Thursday, Friday",06:19,07:21,08:17,09:17,10:17,11:17,12:17,13:17,14:17,15:17,16:17,17:17,18:17,19:17,20:15,,,,,,,,,,,,,,,,,,,,,,,,,,,,,,,,,,,,,,,,,,,,,,,,,,,,,,,,,,,,,,,,MALTA STOP,15,Herba - Iz-Zejtun - MALTA STOP,14.5459752,35.8567324,Stop_70,Stop_69,Stop_70_to_Stop_69
6120,135,Marsaskala - Mater Dei,Tmiem,Iz-Zejtun,"Monday, Tuesday, Wednesday, Thursday, Friday",06:20,07:22,08:18,09:18,10:18,11:18,12:18,13:18,14:18,15:18,16:18,17:18,18:18,19:18,20:15,,,,,,,,,,,,,,,,,,,,,,,,,,,,,,,,,,,,,,,,,,,,,,,,,,,,,,,,,,,,,,,,MALTA STOP,15,Tmiem - Iz-Zejtun - MALTA STOP,14.5437111,35.8559969,Stop_69,Stop_68,Stop_69_to_Stop_68
6121,135,Marsaskala - Mater Dei,Girgor,Iz-Zejtun,"Monday, Tuesday, Wednesday, Thursday, Friday",06:21,07:23,08:19,09:19,10:19,11:19,12:19,13:19,14:19,15:19,16:19,17:19,18:19,19:19,20:16,,,,,,,,,,,,,,,,,,,,,,,,,,,,,,,,,,,,,,,,,,,,,,,,,,,,,,,,,,,,,,,,MALTA STOP,15,Girgor - Iz-Zejtun - MALTA STOP,14.538466,35.8527733,Stop_68,Stop_90,Stop_68_to_Stop_90
6122,135,Marsaskala - Mater Dei,Lawrenz,Iz-Zejtun,"Monday, Tuesday, Wednesday, Thursday, Friday",06:22,07:24,08:19,09:19,10:19,11:19,12:19,13:19,14:19,15:19,16:19,17:19,18:19,19:19,20:17,,,,,,,,,,,,,,,,,,,,,,,,,,,,,,,,,,,,,,,,,,,,,,,,,,,,,,,,,,,,,,,,MALTA STOP,15,Lawrenz - Iz-Zejtun - MALTA STOP,14.5375465,35.8511232,Stop_90,Stop_91,Stop_90_to_Stop_91
6123,135,Marsaskala - Mater Dei,Butigieg,Iz-Zejtun,"Monday, Tuesday, Wednesday, Thursday, Friday",06:23,07:25,08:20,09:20,10:20,11:20,12:20,13:20,14:20,15:20,16:20,17:20,18:20,19:20,20:18,,,,,,,,,,,,,,,,,,,,,,,,,,,,,,,,,,,,,,,,,,,,,,,,,,,,,,,,,,,,,,,,MALTA STOP,15,Butigieg - Iz-Zejtun - MALTA STOP,14.5335026,35.8504406,Stop_91,Stop_66,Stop_91_to_Stop_66
6124,135,Marsaskala - Mater Dei,President,Iz-Zejtun,"Monday, Tuesday, Wednesday, Thursday, Friday",06:24,07:26,08:21,09:21,10:21,11:21,12:21,13:21,14:21,15:21,16:21,17:21,18:21,19:21,20:18,,,,,,,,,,,,,,,,,,,,,,,,,,,,,,,,,,,,,,,,,,,,,,,,,,,,,,,,,,,,,,,,MALTA STOP,15,President - Iz-Zejtun - MALTA STOP,14.5315272,35.8501297,Stop_66,Stop_65,Stop_66_to_Stop_65
6125,135,Marsaskala - Mater Dei,Anton,Iz-Zejtun,"Monday, Tuesday, Wednesday, Thursday, Friday",06:25,07:27,08:22,09:22,10:22,11:22,12:22,13:22,14:22,15:22,16:22,17:22,18:22,19:22,20:19,,,,,,,,,,,,,,,,,,,,,,,,,,,,,,,,,,,,,,,,,,,,,,,,,,,,,,,,,,,,,,,,MALTA STOP,15,Anton - Iz-Zejtun - MALTA STOP,14.5282361,35.8496894,Stop_65,Stop_917,Stop_65_to_Stop_917
6126,135,Marsaskala - Mater Dei,Deheb 5,Bir id-Deheb,"Monday, Tuesday, Wednesday, Thursday, Friday",06:26,07:28,08:23,09:23,10:23,11:23,12:23,13:23,14:23,15:23,16:23,17:23,18:23,19:23,20:19,,,,,,,,,,,,,,,,,,,,,,,,,,,,,,,,,,,,,,,,,,,,,,,,,,,,,,,,,,,,,,,,MALTA STOP,15,Deheb 5 - Bir id-Deheb - MALTA STOP,14.52414,35.8487003,Stop_917,Stop_918,Stop_917_to_Stop_918
6127,135,Marsaskala - Mater Dei,Hareb,Hal Ghaxaq,"Monday, Tuesday, Wednesday, Thursday, Friday",06:27,07:29,08:23,09:23,10:23,11:23,12:23,13:23,14:23,15:23,16:23,17:23,18:23,19:23,20:20,,,,,,,,,,,,,,,,,,,,,,,,,,,,,,,,,,,,,,,,,,,,,,,,,,,,,,,,,,,,,,,,MALTA STOP,15,Hareb - Hal Ghaxaq - MALTA STOP,14.5206374,35.8481936,Stop_918,Stop_919,Stop_918_to_Stop_919
6128,135,Marsaskala - Mater Dei,Telleritu,Hal Ghaxaq,"Monday, Tuesday, Wednesday, Thursday, Friday",06:27,07:30,08:24,09:24,10:24,11:24,12:24,13:24,14:24,15:24,16:24,17:24,18:24,19:24,20:20,,,,,,,,,,,,,,,,,,,,,,,,,,,,,,,,,,,,,,,,,,,,,,,,,,,,,,,,,,,,,,,,MALTA STOP,15,Telleritu - Hal Ghaxaq - MALTA STOP,14.5183012,35.8477762,Stop_919,Stop_920,Stop_919_to_Stop_920
6129,135,Marsaskala - Mater Dei,Tumbarella,Hal Ghaxaq,"Monday, Tuesday, Wednesday, Thursday, Friday",06:28,07:31,08:24,09:24,10:24,11:24,12:24,13:24,14:24,15:24,16:24,17:24,18:24,19:24,20:21,,,,,,,,,,,,,,,,,,,,,,,,,,,,,,,,,,,,,,,,,,,,,,,,,,,,,,,,,,,,,,,,MALTA STOP,15,Tumbarella - Hal Ghaxaq - MALTA STOP,14.5154902,35.8473414,Stop_920,Stop_921,Stop_920_to_Stop_921
6130,135,Marsaskala - Mater Dei,Combini,Hal Ghaxaq,"Monday, Tuesday, Wednesday, Thursday, Friday",06:29,07:32,08:25,09:25,10:25,11:25,12:25,13:25,14:25,15:25,16:25,17:25,18:25,19:25,20:21,,,,,,,,,,,,,,,,,,,,,,,,,,,,,,,,,,,,,,,,,,,,,,,,,,,,,,,,,,,,,,,,MALTA STOP,15,Combini - Hal Ghaxaq - MALTA STOP,14.5138085,35.8484763,Stop_921,Stop_922,Stop_921_to_Stop_922
6131,135,Marsaskala - Mater Dei,Arena,Hal Ghaxaq,"Monday, Tuesday, Wednesday, Thursday, Friday",06:30,07:33,08:26,09:26,10:26,11:26,12:26,13:26,14:26,15:26,16:26,17:26,18:26,19:26,20:22,,,,,,,,,,,,,,,,,,,,,,,,,,,,,,,,,,,,,,,,,,,,,,,,,,,,,,,,,,,,,,,,MALTA STOP,15,Arena - Hal Ghaxaq - MALTA STOP,14.5118827,35.8498025,Stop_922,Stop_1084,Stop_922_to_Stop_1084
6132,135,Marsaskala - Mater Dei,Gravina,Hal Ghaxaq,"Monday, Tuesday, Wednesday, Thursday, Friday",06:31,07:34,08:27,09:27,10:27,11:27,12:27,13:27,14:27,15:27,16:27,17:27,18:27,19:27,20:23,,,,,,,,,,,,,,,,,,,,,,,,,,,,,,,,,,,,,,,,,,,,,,,,,,,,,,,,,,,,,,,,MALTA STOP,15,Gravina - Hal Ghaxaq - MALTA STOP,14.5129421,35.8509917,Stop_1084,Stop_1085,Stop_1084_to_Stop_1085
6133,135,Marsaskala - Mater Dei,Demicoli,Hal Ghaxaq,"Monday, Tuesday, Wednesday, Thursday, Friday",06:31,07:34,08:27,09:27,10:27,11:27,12:27,13:27,14:27,15:27,16:27,17:27,18:27,19:27,20:23,,,,,,,,,,,,,,,,,,,,,,,,,,,,,,,,,,,,,,,,,,,,,,,,,,,,,,,,,,,,,,,,MALTA STOP,15,Demicoli - Hal Ghaxaq - MALTA STOP,14.5156163,35.850983,Stop_1085,Stop_1086,Stop_1085_to_Stop_1086
6134,135,Marsaskala - Mater Dei,Miftuh,Hal Ghaxaq,"Monday, Tuesday, Wednesday, Thursday, Friday",06:32,07:35,08:28,09:28,10:28,11:28,12:28,13:28,14:28,15:28,16:28,17:28,18:28,19:28,20:24,,,,,,,,,,,,,,,,,,,,,,,,,,,,,,,,,,,,,,,,,,,,,,,,,,,,,,,,,,,,,,,,MALTA STOP,15,Miftuh - Hal Ghaxaq - MALTA STOP,14.5148599,35.8492242,Stop_1086,Stop_923,Stop_1086_to_Stop_923
6135,135,Marsaskala - Mater Dei,Dawret,Hal Ghaxaq,"Monday, Tuesday, Wednesday, Thursday, Friday",06:34,07:38,08:30,09:30,10:30,11:30,12:30,13:30,14:30,15:30,16:30,17:30,18:30,19:30,20:25,,,,,,,,,,,,,,,,,,,,,,,,,,,,,,,,,,,,,,,,,,,,,,,,,,,,,,,,,,,,,,,,MALTA STOP,15,Dawret - Hal Ghaxaq - MALTA STOP,14.5080364,35.8507449,Stop_923,Stop_924,Stop_923_to_Stop_924
6136,135,Marsaskala - Mater Dei,Bettina,Il-Gudja,"Monday, Tuesday, Wednesday, Thursday, Friday",06:35,07:38,08:30,09:30,10:30,11:30,12:30,13:30,14:30,15:30,16:30,17:30,18:30,19:30,20:26,,,,,,,,,,,,,,,,,,,,,,,,,,,,,,,,,,,,,,,,,,,,,,,,,,,,,,,,,,,,,,,,MALTA STOP,15,Bettina - Il-Gudja - MALTA STOP,14.5064941,35.8508612,Stop_924,Stop_1087,Stop_924_to_Stop_1087
6137,135,Marsaskala - Mater Dei,Pigot,Il-Gudja,"Monday, Tuesday, Wednesday, Thursday, Friday",06:36,07:39,08:31,09:31,10:31,11:31,12:31,13:31,14:31,15:31,16:31,17:31,18:31,19:31,20:26,,,,,,,,,,,,,,,,,,,,,,,,,,,,,,,,,,,,,,,,,,,,,,,,,,,,,,,,,,,,,,,,MALTA STOP,15,Pigot - Il-Gudja - MALTA STOP,14.5071025,35.848281,Stop_1087,Stop_1088,Stop_1087_to_Stop_1088
6138,135,Marsaskala - Mater Dei,Ghelejjel,Il-Gudja,"Monday, Tuesday, Wednesday, Thursday, Friday",06:37,07:41,08:32,09:32,10:32,11:32,12:32,13:32,14:32,15:32,16:32,17:32,18:32,19:32,20:27,,,,,,,,,,,,,,,,,,,,,,,,,,,,,,,,,,,,,,,,,,,,,,,,,,,,,,,,,,,,,,,,MALTA STOP,15,Ghelejjel - Il-Gudja - MALTA STOP,14.5058021,35.8470544,Stop_1088,Stop_1089,Stop_1088_to_Stop_1089
6139,135,Marsaskala - Mater Dei,Castagna,Il-Gudja,"Monday, Tuesday, Wednesday, Thursday, Friday",06:38,07:42,08:33,09:33,10:33,11:33,12:33,13:33,14:33,15:33,16:33,17:33,18:33,19:33,20:28,,,,,,,,,,,,,,,,,,,,,,,,,,,,,,,,,,,,,,,,,,,,,,,,,,,,,,,,,,,,,,,,MALTA STOP,15,Castagna - Il-Gudja - MALTA STOP,14.5054293,35.8485328,Stop_1089,Stop_925,Stop_1089_to_Stop_925
6140,135,Marsaskala - Mater Dei,Annunziata,Il-Gudja,"Monday, Tuesday, Wednesday, Thursday, Friday",06:39,07:43,08:34,09:34,10:34,11:34,12:34,13:34,14:34,15:34,16:34,17:34,18:34,19:34,20:29,,,,,,,,,,,,,,,,,,,,,,,,,,,,,,,,,,,,,,,,,,,,,,,,,,,,,,,,,,,,,,,,MALTA STOP,15,Annunziata - Il-Gudja - MALTA STOP,14.5039567,35.8491916,Stop_925,Stop_926,Stop_925_to_Stop_926
6141,135,Marsaskala - Mater Dei,Ciru,Il-Gudja,"Monday, Tuesday, Wednesday, Thursday, Friday",06:39,07:44,08:34,09:34,10:34,11:34,12:34,13:34,14:34,15:34,16:34,17:34,18:34,19:34,20:29,,,,,,,,,,,,,,,,,,,,,,,,,,,,,,,,,,,,,,,,,,,,,,,,,,,,,,,,,,,,,,,,MALTA STOP,15,Ciru - Il-Gudja - MALTA STOP,14.5029028,35.8482555,Stop_926,Stop_927,Stop_926_to_Stop_927
6142,135,Marsaskala - Mater Dei,Gudja,Il-Gudja,"Monday, Tuesday, Wednesday, Thursday, Friday",06:40,07:44,08:35,09:35,10:35,11:35,12:35,13:35,14:35,15:35,16:35,17:35,18:35,19:35,20:29,,,,,,,,,,,,,,,,,,,,,,,,,,,,,,,,,,,,,,,,,,,,,,,,,,,,,,,,,,,,,,,,MALTA STOP,15,Gudja - Il-Gudja - MALTA STOP,14.5018512,35.8490937,Stop_927,Stop_928,Stop_927_to_Stop_928
6143,135,Marsaskala - Mater Dei,Gibja,Il-Gudja,"Monday, Tuesday, Wednesday, Thursday, Friday",06:41,07:45,08:35,09:35,10:35,11:35,12:35,13:35,14:35,15:35,16:35,17:35,18:35,19:35,20:30,,,,,,,,,,,,,,,,,,,,,,,,,,,,,,,,,,,,,,,,,,,,,,,,,,,,,,,,,,,,,,,,MALTA STOP,15,Gibja - Il-Gudja - MALTA STOP,14.4998074,35.8507091,Stop_928,Stop_1090,Stop_928_to_Stop_1090
6144,135,Marsaskala - Mater Dei,Bir,Il-Gudja,"Monday, Tuesday, Wednesday, Thursday, Friday",06:42,07:47,08:37,09:37,10:37,11:37,12:37,13:37,14:37,15:37,16:37,17:37,18:37,19:37,20:31,,,,,,,,,,,,,,,,,,,,,,,,,,,,,,,,,,,,,,,,,,,,,,,,,,,,,,,,,,,,,,,,MALTA STOP,15,Bir - Il-Gudja - MALTA STOP,14.495206,35.8533005,Stop_1090,Stop_29,Stop_1090_to_Stop_29
6145,135,Marsaskala - Mater Dei,Airport 3,Hal Luqa,"Monday, Tuesday, Wednesday, Thursday, Friday",06:45,07:50,08:39,09:39,10:39,11:39,12:39,13:39,14:39,15:39,16:39,17:39,18:39,19:39,20:33,,,,,,,,,,,,,,,,,,,,,,,,,,,,,,,,,,,,,,,,,,,,,,,,,,,,,,,,,,,,,,,,MALTA STOP,15,Airport 3 - Hal Luqa - MALTA STOP,14.4967201,35.8488557,Stop_29,Stop_1,Stop_29_to_Stop_1
6146,135,Marsaskala - Mater Dei,Avjazzjoni,Hal Luqa,"Monday, Tuesday, Wednesday, Thursday, Friday",06:48,07:53,08:41,09:41,10:41,11:41,12:41,13:41,14:41,15:41,16:41,17:41,18:41,19:41,20:35,,,,,,,,,,,,,,,,,,,,,,,,,,,,,,,,,,,,,,,,,,,,,,,,,,,,,,,,,,,,,,,,MALTA STOP,15,Avjazzjoni - Hal Luqa - MALTA STOP,14.4922893,35.8548313,Stop_1,Stop_2,Stop_1_to_Stop_2
6147,135,Marsaskala - Mater Dei,Mitjar,Hal Luqa,"Monday, Tuesday, Wednesday, Thursday, Friday",06:49,07:55,08:43,09:43,10:43,11:43,12:43,13:43,14:43,15:43,16:43,17:43,18:43,19:43,20:36,,,,,,,,,,,,,,,,,,,,,,,,,,,,,,,,,,,,,,,,,,,,,,,,,,,,,,,,,,,,,,,,MALTA STOP,15,Mitjar - Hal Luqa - MALTA STOP,14.4869488,35.8556994,Stop_2,Stop_178,Stop_2_to_Stop_178
6148,135,Marsaskala - Mater Dei,Tumas,Hal Luqa,"Monday, Tuesday, Wednesday, Thursday, Friday",06:51,07:57,08:44,09:44,10:44,11:44,12:44,13:44,14:44,15:44,16:44,17:44,18:44,19:44,20:37,,,,,,,,,,,,,,,,,,,,,,,,,,,,,,,,,,,,,,,,,,,,,,,,,,,,,,,,,,,,,,,,MALTA STOP,15,Tumas - Hal Luqa - MALTA STOP,14.4838603,35.8604352,Stop_178,Stop_177,Stop_178_to_Stop_177
6149,135,Marsaskala - Mater Dei,Schinas,Hal Farrug,"Monday, Tuesday, Wednesday, Thursday, Friday",06:53,07:58,08:46,09:46,10:46,11:46,12:46,13:46,14:46,15:46,16:46,17:46,18:46,19:46,20:38,,,,,,,,,,,,,,,,,,,,,,,,,,,,,,,,,,,,,,,,,,,,,,,,,,,,,,,,,,,,,,,,MALTA STOP,15,Schinas - Hal Farrug - MALTA STOP,14.4775705,35.8635925,Stop_177,Stop_1091,Stop_177_to_Stop_1091
6150,135,Marsaskala - Mater Dei,Egrett,Hal Farrug,"Monday, Tuesday, Wednesday, Thursday, Friday",06:54,08:00,08:47,09:47,10:47,11:47,12:47,13:47,14:47,15:47,16:47,17:47,18:47,19:47,20:39,,,,,,,,,,,,,,,,,,,,,,,,,,,,,,,,,,,,,,,,,,,,,,,,,,,,,,,,,,,,,,,,MALTA STOP,15,Egrett - Hal Farrug - MALTA STOP,14.4801494,35.8648978,Stop_1091,Stop_1092,Stop_1091_to_Stop_1092
6151,135,Marsaskala - Mater Dei,Masgar,Hal Farrug,"Monday, Tuesday, Wednesday, Thursday, Friday",06:55,08:00,08:47,09:47,10:47,11:47,12:47,13:47,14:47,15:47,16:47,17:47,18:47,19:47,20:40,,,,,,,,,,,,,,,,,,,,,,,,,,,,,,,,,,,,,,,,,,,,,,,,,,,,,,,,,,,,,,,,MALTA STOP,15,Masgar - Hal Farrug - MALTA STOP,14.4785281,35.8641653,Stop_1092,Stop_177,Stop_1092_to_Stop_177
6152,135,Marsaskala - Mater Dei,Schinas,Hal Farrug,"Monday, Tuesday, Wednesday, Thursday, Friday",06:55,08:01,08:47,09:47,10:47,11:47,12:47,13:47,14:47,15:47,16:47,17:47,18:47,19:47,20:40,,,,,,,,,,,,,,,,,,,,,,,,,,,,,,,,,,,,,,,,,,,,,,,,,,,,,,,,,,,,,,,,MALTA STOP,15,Schinas - Hal Farrug - MALTA STOP,14.4775705,35.8635925,Stop_177,Stop_1093,Stop_177_to_Stop_1093
6153,135,Marsaskala - Mater Dei,Militari,Hal Farrug,"Monday, Tuesday, Wednesday, Thursday, Friday",06:56,08:01,08:48,09:48,10:48,11:48,12:48,13:48,14:48,15:48,16:48,17:48,18:48,19:48,20:40,,,,,,,,,,,,,,,,,,,,,,,,,,,,,,,,,,,,,,,,,,,,,,,,,,,,,,,,,,,,,,,,MALTA STOP,15,Militari - Hal Farrug - MALTA STOP,14.4777676,35.8642892,Stop_1093,Stop_1092,Stop_1093_to_Stop_1092
6154,135,Marsaskala - Mater Dei,Masgar,Hal Farrug,"Monday, Tuesday, Wednesday, Thursday, Friday",06:56,08:02,08:48,09:48,10:48,11:48,12:48,13:48,14:48,15:48,16:48,17:48,18:48,19:48,20:41,,,,,,,,,,,,,,,,,,,,,,,,,,,,,,,,,,,,,,,,,,,,,,,,,,,,,,,,,,,,,,,,MALTA STOP,15,Masgar - Hal Farrug - MALTA STOP,14.4785281,35.8641653,Stop_1092,Stop_1094,Stop_1092_to_Stop_1094
6155,135,Marsaskala - Mater Dei,Sarsella,Hal Farrug,"Monday, Tuesday, Wednesday, Thursday, Friday",06:56,08:03,08:49,09:49,10:49,11:49,12:49,13:49,14:49,15:49,16:49,17:49,18:49,19:49,20:41,,,,,,,,,,,,,,,,,,,,,,,,,,,,,,,,,,,,,,,,,,,,,,,,,,,,,,,,,,,,,,,,MALTA STOP,15,Sarsella - Hal Farrug - MALTA STOP,14.4797766,35.8654978,Stop_1094,Stop_175,Stop_1094_to_Stop_175
6156,135,Marsaskala - Mater Dei,Farrug,Hal Farrug,"Monday, Tuesday, Wednesday, Thursday, Friday",06:57,08:04,08:49,09:49,10:49,11:49,12:49,13:49,14:49,15:49,16:49,17:49,18:49,19:49,20:42,,,,,,,,,,,,,,,,,,,,,,,,,,,,,,,,,,,,,,,,,,,,,,,,,,,,,,,,,,,,,,,,MALTA STOP,15,Farrug - Hal Farrug - MALTA STOP,14.4807103,35.8694297,Stop_175,Stop_1095,Stop_175_to_Stop_1095
6157,135,Marsaskala - Mater Dei,Vincenz 1,San Vincenz,"Monday, Tuesday, Wednesday, Thursday, Friday",06:59,08:06,08:51,09:51,10:51,11:51,12:51,13:51,14:51,15:51,16:51,17:51,18:51,19:51,20:43,,,,,,,,,,,,,,,,,,,,,,,,,,,,,,,,,,,,,,,,,,,,,,,,,,,,,,,,,,,,,,,,MALTA STOP,15,Vincenz 1 - San Vincenz - MALTA STOP,14.483163,35.8700737,Stop_1095,Stop_3,Stop_1095_to_Stop_3
6158,135,Marsaskala - Mater Dei,Ingieret,San Vincenz,"Monday, Tuesday, Wednesday, Thursday, Friday",07:00,08:07,08:52,09:52,10:52,11:52,12:52,13:52,14:52,15:52,16:52,17:52,18:52,19:52,20:43,,,,,,,,,,,,,,,,,,,,,,,,,,,,,,,,,,,,,,,,,,,,,,,,,,,,,,,,,,,,,,,,MALTA STOP,15,Ingieret - San Vincenz - MALTA STOP,14.4826734,35.8709795,Stop_3,Stop_1038,Stop_3_to_Stop_1038
6159,135,Marsaskala - Mater Dei,Marsa Park & Ride 6,Il-Marsa,"Monday, Tuesday, Wednesday, Thursday, Friday",07:05,08:12,08:56,09:56,10:56,11:56,12:56,13:56,14:56,15:56,16:56,17:56,18:56,19:56,20:47,,,,,,,,,,,,,,,,,,,,,,,,,,,,,,,,,,,,,,,,,,,,,,,,,,,,,,,,,,,,,,,,MALTA STOP,15,Marsa Park & Ride 6 - Il-Marsa - MALTA STOP,14.4841929,35.878272,Stop_1038,Stop_725,Stop_1038_to_Stop_725
6160,135,Marsaskala - Mater Dei,Qaddisin,Il-Marsa,"Monday, Tuesday, Wednesday, Thursday, Friday",07:07,08:14,08:57,09:57,10:57,11:57,12:57,13:57,14:57,15:57,16:57,17:57,18:57,19:57,20:48,,,,,,,,,,,,,,,,,,,,,,,,,,,,,,,,,,,,,,,,,,,,,,,,,,,,,,,,,,,,,,,,MALTA STOP,15,Qaddisin - Il-Marsa - MALTA STOP,14.4848178,35.8806216,Stop_725,Stop_111,Stop_725_to_Stop_111
6161,135,Marsaskala - Mater Dei,Qroqq 5,Is-Swatar,"Monday, Tuesday, Wednesday, Thursday, Friday",07:19,08:26,09:04,10:04,11:04,12:04,13:04,14:04,15:04,16:04,17:04,18:03,19:03,20:03,20:54,,,,,,,,,,,,,,,,,,,,,,,,,,,,,,,,,,,,,,,,,,,,,,,,,,,,,,,,,,,,,,,,MALTA STOP,15,Qroqq 5 - Is-Swatar - MALTA STOP,14.4829079,35.8998156,Stop_111,Stop_5,Stop_111_to_Stop_5
6162,135,Marsaskala - Mater Dei,Universita 1,L-Imsida,"Monday, Tuesday, Wednesday, Thursday, Friday",07:23,08:30,09:06,10:06,11:06,12:06,13:06,14:06,15:06,16:06,17:06,18:05,19:05,20:05,20:56,,,,,,,,,,,,,,,,,,,,,,,,,,,,,,,,,,,,,,,,,,,,,,,,,,,,,,,,,,,,,,,,MALTA STOP,15,Universita 1 - L-Imsida - MALTA STOP,14.479873,35.9014288,Stop_5,Stop_6,Stop_5_to_Stop_6
6163,135,Marsaskala - Mater Dei,Mater Dei 2,Mater Dei,"Monday, Tuesday, Wednesday, Thursday, Friday",07:25,08:32,09:08,10:08,11:08,12:08,13:08,14:08,15:08,16:08,17:08,18:06,19:06,20:06,20:57,,,,,,,,,,,,,,,,,,,,,,,,,,,,,,,,,,,,,,,,,,,,,,,,,,,,,,,,,,,,,,,,MALTA STOP,15,Mater Dei 2 - Mater Dei - MALTA STOP,14.4765783,35.9008452,Stop_6,Stop_7,Stop_6_to_Stop_7
6164,135,Marsaskala - Mater Dei,Sptar 1,Mater Dei,"Monday, Tuesday, Wednesday, Thursday, Friday",07:27,08:34,09:09,10:09,11:09,12:09,13:09,14:09,15:09,16:09,17:09,18:07,19:07,20:07,20:58,,,,,,,,,,,,,,,,,,,,,,,,,,,,,,,,,,,,,,,,,,,,,,,,,,,,,,,,,,,,,,,,MALTA STOP,15,Sptar 1 - Mater Dei - MALTA STOP,14.4756107,35.9019175,Stop_7,,
6165,135,Mater Dei - Marsaskala,Sptar 3,Mater Dei,"Monday, Tuesday, Wednesday, Thursday, Friday",06:10,07:10,08:10,09:10,10:10,11:10,12:10,13:10,14:10,15:10,16:10,17:10,18:10,19:10,20:10,,,,,,,,,,,,,,,,,,,,,,,,,,,,,,,,,,,,,,,,,,,,,,,,,,,,,,,,,,,,,,,,MALTA STOP,15,Sptar 3 - Mater Dei - MALTA STOP,14.4754663,35.9017872,Stop_27,Stop_1029,Stop_27_to_Stop_1029
6166,135,Mater Dei - Marsaskala,Universita 4,L-Imsida,"Monday, Tuesday, Wednesday, Thursday, Friday",06:13,07:13,08:13,09:12,10:12,11:12,12:12,13:12,14:12,15:13,16:13,17:13,18:13,19:13,20:13,,,,,,,,,,,,,,,,,,,,,,,,,,,,,,,,,,,,,,,,,,,,,,,,,,,,,,,,,,,,,,,,MALTA STOP,15,Universita 4 - L-Imsida - MALTA STOP,14.4798866,35.9011886,Stop_1029,Stop_692,Stop_1029_to_Stop_692
6167,135,Mater Dei - Marsaskala,Qaddisin,Hal Qormi,"Monday, Tuesday, Wednesday, Thursday, Friday",06:23,07:23,08:23,09:20,10:20,11:20,12:20,13:20,14:20,15:23,16:23,17:23,18:23,19:23,20:23,,,,,,,,,,,,,,,,,,,,,,,,,,,,,,,,,,,,,,,,,,,,,,,,,,,,,,,,,,,,,,,,MALTA STOP,15,Qaddisin - Hal Qormi - MALTA STOP,14.4838708,35.8801098,Stop_692,Stop_1096,Stop_692_to_Stop_1096
6168,135,Mater Dei - Marsaskala,Marsa Park & Ride 5,Il-Marsa,"Monday, Tuesday, Wednesday, Thursday, Friday",06:26,07:26,08:26,09:22,10:22,11:22,12:22,13:22,14:22,15:25,16:25,17:25,18:25,19:25,20:25,,,,,,,,,,,,,,,,,,,,,,,,,,,,,,,,,,,,,,,,,,,,,,,,,,,,,,,,,,,,,,,,MALTA STOP,15,Marsa Park & Ride 5 - Il-Marsa - MALTA STOP,14.4840049,35.8782261,Stop_1096,Stop_1095,Stop_1096_to_Stop_1095
6169,135,Mater Dei - Marsaskala,Vincenz 1,San Vincenz,"Monday, Tuesday, Wednesday, Thursday, Friday",06:31,07:30,08:30,09:26,10:26,11:27,12:27,13:27,14:27,15:30,16:30,17:30,18:29,19:29,20:29,,,,,,,,,,,,,,,,,,,,,,,,,,,,,,,,,,,,,,,,,,,,,,,,,,,,,,,,,,,,,,,,MALTA STOP,15,Vincenz 1 - San Vincenz - MALTA STOP,14.483163,35.8700737,Stop_1095,Stop_3,Stop_1095_to_Stop_3
6170,135,Mater Dei - Marsaskala,Ingieret,San Vincenz/Luqa,"Monday, Tuesday, Wednesday, Thursday, Friday",06:31,07:31,08:31,09:27,10:27,11:27,12:27,13:27,14:28,15:31,16:31,17:30,18:29,19:29,20:29,,,,,,,,,,,,,,,,,,,,,,,,,,,,,,,,,,,,,,,,,,,,,,,,,,,,,,,,,,,,,,,,MALTA STOP,15,Ingieret - San Vincenz/Luqa - MALTA STOP,14.4826734,35.8709795,Stop_3,Stop_175,Stop_3_to_Stop_175
6171,135,Mater Dei - Marsaskala,Farrug,Hal Farrug,"Monday, Tuesday, Wednesday, Thursday, Friday",06:33,07:32,08:32,09:28,10:28,11:28,12:28,13:28,14:29,15:32,16:32,17:32,18:30,19:30,20:30,,,,,,,,,,,,,,,,,,,,,,,,,,,,,,,,,,,,,,,,,,,,,,,,,,,,,,,,,,,,,,,,MALTA STOP,15,Farrug - Hal Farrug - MALTA STOP,14.4807103,35.8694297,Stop_175,Stop_176,Stop_175_to_Stop_176
6172,135,Mater Dei - Marsaskala,Duca,Hal Farrug,"Monday, Tuesday, Wednesday, Thursday, Friday",06:33,07:32,08:32,09:28,10:28,11:29,12:29,13:29,14:30,15:33,16:33,17:32,18:31,19:31,20:31,,,,,,,,,,,,,,,,,,,,,,,,,,,,,,,,,,,,,,,,,,,,,,,,,,,,,,,,,,,,,,,,MALTA STOP,15,Duca - Hal Farrug - MALTA STOP,14.481078,35.866682,Stop_176,Stop_177,Stop_176_to_Stop_177
6173,135,Mater Dei - Marsaskala,Schinas,Hal Farrug,"Monday, Tuesday, Wednesday, Thursday, Friday",06:35,07:34,08:34,09:30,10:30,11:31,12:31,13:31,14:32,15:35,16:35,17:34,18:32,19:32,20:32,,,,,,,,,,,,,,,,,,,,,,,,,,,,,,,,,,,,,,,,,,,,,,,,,,,,,,,,,,,,,,,,MALTA STOP,15,Schinas - Hal Farrug - MALTA STOP,14.4775705,35.8635925,Stop_177,Stop_178,Stop_177_to_Stop_178
6174,135,Mater Dei - Marsaskala,Tumas,Hal Luqa,"Monday, Tuesday, Wednesday, Thursday, Friday",06:36,07:34,08:34,09:30,10:30,11:31,12:31,13:31,14:33,15:36,16:36,17:35,18:33,19:33,20:33,,,,,,,,,,,,,,,,,,,,,,,,,,,,,,,,,,,,,,,,,,,,,,,,,,,,,,,,,,,,,,,,MALTA STOP,15,Tumas - Hal Luqa - MALTA STOP,14.4838603,35.8604352,Stop_178,Stop_28,Stop_178_to_Stop_28
6175,135,Mater Dei - Marsaskala,Azzopardi,Hal Luqa,"Monday, Tuesday, Wednesday, Thursday, Friday",06:37,07:36,08:36,09:32,10:32,11:33,12:33,13:33,14:34,15:37,16:37,17:36,18:34,19:34,20:34,,,,,,,,,,,,,,,,,,,,,,,,,,,,,,,,,,,,,,,,,,,,,,,,,,,,,,,,,,,,,,,,MALTA STOP,15,Azzopardi - Hal Luqa - MALTA STOP,14.4847525,35.858038,Stop_28,Stop_2,Stop_28_to_Stop_2
6176,135,Mater Dei - Marsaskala,Mitjar,Hal Luqa,"Monday, Tuesday, Wednesday, Thursday, Friday",06:38,07:37,08:37,09:33,10:33,11:34,12:34,13:34,14:36,15:39,16:39,17:37,18:35,19:35,20:35,,,,,,,,,,,,,,,,,,,,,,,,,,,,,,,,,,,,,,,,,,,,,,,,,,,,,,,,,,,,,,,,MALTA STOP,15,Mitjar - Hal Luqa - MALTA STOP,14.4869488,35.8556994,Stop_2,Stop_1,Stop_2_to_Stop_1
6177,135,Mater Dei - Marsaskala,Avjazzjoni,Hal Luqa,"Monday, Tuesday, Wednesday, Thursday, Friday",06:40,07:39,08:39,09:35,10:35,11:36,12:36,13:36,14:38,15:41,16:41,17:39,18:37,19:37,20:37,,,,,,,,,,,,,,,,,,,,,,,,,,,,,,,,,,,,,,,,,,,,,,,,,,,,,,,,,,,,,,,,MALTA STOP,15,Avjazzjoni - Hal Luqa - MALTA STOP,14.4922893,35.8548313,Stop_1,Stop_29,Stop_1_to_Stop_29
6178,135,Mater Dei - Marsaskala,Airport 3,Hal Luqa,"Monday, Tuesday, Wednesday, Thursday, Friday",06:44,07:41,08:41,09:37,10:37,11:39,12:39,13:39,14:42,15:45,16:45,17:43,18:40,19:40,20:40,,,,,,,,,,,,,,,,,,,,,,,,,,,,,,,,,,,,,,,,,,,,,,,,,,,,,,,,,,,,,,,,MALTA STOP,15,Airport 3 - Hal Luqa - MALTA STOP,14.4967201,35.8488557,Stop_29,Stop_1090,Stop_29_to_Stop_1090
6179,135,Mater Dei - Marsaskala,Bir,Il-Gudja,"Monday, Tuesday, Wednesday, Thursday, Friday",06:46,07:44,08:44,09:40,10:40,11:42,12:42,13:42,14:45,15:48,16:48,17:45,18:42,19:42,20:42,,,,,,,,,,,,,,,,,,,,,,,,,,,,,,,,,,,,,,,,,,,,,,,,,,,,,,,,,,,,,,,,MALTA STOP,15,Bir - Il-Gudja - MALTA STOP,14.495206,35.8533005,Stop_1090,Stop_929,Stop_1090_to_Stop_929
6180,135,Mater Dei - Marsaskala,Burglat,Il-Gudja,"Monday, Tuesday, Wednesday, Thursday, Friday",06:48,07:45,08:45,09:41,10:41,11:43,12:43,13:43,14:47,15:50,16:50,17:47,18:43,19:43,20:43,,,,,,,,,,,,,,,,,,,,,,,,,,,,,,,,,,,,,,,,,,,,,,,,,,,,,,,,,,,,,,,,MALTA STOP,15,Burglat - Il-Gudja - MALTA STOP,14.5014945,35.8513461,Stop_929,Stop_930,Stop_929_to_Stop_930
6181,135,Mater Dei - Marsaskala,Habel,Il-Gudja,"Monday, Tuesday, Wednesday, Thursday, Friday",06:49,07:46,08:46,09:42,10:42,11:45,12:45,13:45,14:48,15:51,16:51,17:48,18:44,19:44,20:44,,,,,,,,,,,,,,,,,,,,,,,,,,,,,,,,,,,,,,,,,,,,,,,,,,,,,,,,,,,,,,,,MALTA STOP,15,Habel - Il-Gudja - MALTA STOP,14.5048445,35.8507417,Stop_930,Stop_1087,Stop_930_to_Stop_1087
6182,135,Mater Dei - Marsaskala,Pigot,Il-Gudja,"Monday, Tuesday, Wednesday, Thursday, Friday",06:50,07:47,08:47,09:43,10:43,11:46,12:46,13:46,14:49,15:52,16:52,17:49,18:45,19:45,20:45,,,,,,,,,,,,,,,,,,,,,,,,,,,,,,,,,,,,,,,,,,,,,,,,,,,,,,,,,,,,,,,,MALTA STOP,15,Pigot - Il-Gudja - MALTA STOP,14.5071025,35.848281,Stop_1087,Stop_1088,Stop_1087_to_Stop_1088
6183,135,Mater Dei - Marsaskala,Ghelejjel,Il-Gudja,"Monday, Tuesday, Wednesday, Thursday, Friday",06:52,07:49,08:49,09:45,10:45,11:47,12:47,13:47,14:51,15:54,16:54,17:51,18:46,19:46,20:46,,,,,,,,,,,,,,,,,,,,,,,,,,,,,,,,,,,,,,,,,,,,,,,,,,,,,,,,,,,,,,,,MALTA STOP,15,Ghelejjel - Il-Gudja - MALTA STOP,14.5058021,35.8470544,Stop_1088,Stop_1089,Stop_1088_to_Stop_1089
6184,135,Mater Dei - Marsaskala,Castagna,Il-Gudja,"Monday, Tuesday, Wednesday, Thursday, Friday",06:53,07:49,08:49,09:45,10:45,11:48,12:48,13:48,14:52,15:55,16:55,17:52,18:47,19:47,20:47,,,,,,,,,,,,,,,,,,,,,,,,,,,,,,,,,,,,,,,,,,,,,,,,,,,,,,,,,,,,,,,,MALTA STOP,15,Castagna - Il-Gudja - MALTA STOP,14.5054293,35.8485328,Stop_1089,Stop_925,Stop_1089_to_Stop_925
6185,135,Mater Dei - Marsaskala,Annunziata,Il-Gudja,"Monday, Tuesday, Wednesday, Thursday, Friday",06:54,07:51,08:51,09:47,10:47,11:49,12:49,13:49,14:53,15:56,16:56,17:53,18:48,19:48,20:48,,,,,,,,,,,,,,,,,,,,,,,,,,,,,,,,,,,,,,,,,,,,,,,,,,,,,,,,,,,,,,,,MALTA STOP,15,Annunziata - Il-Gudja - MALTA STOP,14.5039567,35.8491916,Stop_925,Stop_926,Stop_925_to_Stop_926
6186,135,Mater Dei - Marsaskala,Ciru,Il-Gudja,"Monday, Tuesday, Wednesday, Thursday, Friday",06:55,07:51,08:51,09:47,10:47,11:50,12:50,13:50,14:54,15:57,16:57,17:54,18:49,19:49,20:49,,,,,,,,,,,,,,,,,,,,,,,,,,,,,,,,,,,,,,,,,,,,,,,,,,,,,,,,,,,,,,,,MALTA STOP,15,Ciru - Il-Gudja - MALTA STOP,14.5029028,35.8482555,Stop_926,Stop_927,Stop_926_to_Stop_927
6187,135,Mater Dei - Marsaskala,Gudja,Il-Gudja,"Monday, Tuesday, Wednesday, Thursday, Friday",06:55,07:52,08:52,09:48,10:48,11:50,12:50,13:50,14:54,15:57,16:57,17:54,18:49,19:49,20:49,,,,,,,,,,,,,,,,,,,,,,,,,,,,,,,,,,,,,,,,,,,,,,,,,,,,,,,,,,,,,,,,MALTA STOP,15,Gudja - Il-Gudja - MALTA STOP,14.5018512,35.8490937,Stop_927,Stop_928,Stop_927_to_Stop_928
6188,135,Mater Dei - Marsaskala,Gibja,Il-Gudja,"Monday, Tuesday, Wednesday, Thursday, Friday",06:56,07:53,08:53,09:49,10:49,11:51,12:51,13:51,14:56,15:59,16:59,17:55,18:50,19:50,20:50,,,,,,,,,,,,,,,,,,,,,,,,,,,,,,,,,,,,,,,,,,,,,,,,,,,,,,,,,,,,,,,,MALTA STOP,15,Gibja - Il-Gudja - MALTA STOP,14.4998074,35.8507091,Stop_928,Stop_924,Stop_928_to_Stop_924
6189,135,Mater Dei - Marsaskala,Bettina,Il-Gudja,"Monday, Tuesday, Wednesday, Thursday, Friday",06:59,07:55,08:55,09:51,10:51,11:54,12:54,13:54,14:59,16:02,17:02,17:58,18:52,19:52,20:52,,,,,,,,,,,,,,,,,,,,,,,,,,,,,,,,,,,,,,,,,,,,,,,,,,,,,,,,,,,,,,,,MALTA STOP,15,Bettina - Il-Gudja - MALTA STOP,14.5064941,35.8508612,Stop_924,Stop_923,Stop_924_to_Stop_923
6190,135,Mater Dei - Marsaskala,Dawret,Hal Ghaxaq,"Monday, Tuesday, Wednesday, Thursday, Friday",06:59,07:55,08:55,09:51,10:51,11:54,12:54,13:54,14:59,16:02,17:02,17:58,18:53,19:53,20:53,,,,,,,,,,,,,,,,,,,,,,,,,,,,,,,,,,,,,,,,,,,,,,,,,,,,,,,,,,,,,,,,MALTA STOP,15,Dawret - Hal Ghaxaq - MALTA STOP,14.5080364,35.8507449,Stop_923,Stop_1097,Stop_923_to_Stop_1097
6191,135,Mater Dei - Marsaskala,Gistakor,Hal Ghaxaq,"Monday, Tuesday, Wednesday, Thursday, Friday",07:00,07:56,08:56,09:52,10:52,11:55,12:55,13:55,15:00,16:03,17:03,17:59,18:53,19:53,20:53,,,,,,,,,,,,,,,,,,,,,,,,,,,,,,,,,,,,,,,,,,,,,,,,,,,,,,,,,,,,,,,,MALTA STOP,15,Gistakor - Hal Ghaxaq - MALTA STOP,14.5102841,35.8501373,Stop_1097,Stop_1084,Stop_1097_to_Stop_1084
6192,135,Mater Dei - Marsaskala,Gravina,Hal Ghaxaq,"Monday, Tuesday, Wednesday, Thursday, Friday",07:01,07:57,08:57,09:53,10:53,11:56,12:56,13:56,15:01,16:04,17:04,18:00,18:54,19:54,20:54,,,,,,,,,,,,,,,,,,,,,,,,,,,,,,,,,,,,,,,,,,,,,,,,,,,,,,,,,,,,,,,,MALTA STOP,15,Gravina - Hal Ghaxaq - MALTA STOP,14.5129421,35.8509917,Stop_1084,Stop_1085,Stop_1084_to_Stop_1085
6193,135,Mater Dei - Marsaskala,Demicoli,Hal Ghaxaq,"Monday, Tuesday, Wednesday, Thursday, Friday",07:02,07:58,08:58,09:54,10:54,11:57,12:57,13:57,15:02,16:05,17:05,18:01,18:55,19:55,20:55,,,,,,,,,,,,,,,,,,,,,,,,,,,,,,,,,,,,,,,,,,,,,,,,,,,,,,,,,,,,,,,,MALTA STOP,15,Demicoli - Hal Ghaxaq - MALTA STOP,14.5156163,35.850983,Stop_1085,Stop_1086,Stop_1085_to_Stop_1086
6194,135,Mater Dei - Marsaskala,Miftuh,Hal Ghaxaq,"Monday, Tuesday, Wednesday, Thursday, Friday",07:03,07:59,08:59,09:55,10:55,11:58,12:58,13:58,15:03,16:06,17:06,18:02,18:56,19:56,20:56,,,,,,,,,,,,,,,,,,,,,,,,,,,,,,,,,,,,,,,,,,,,,,,,,,,,,,,,,,,,,,,,MALTA STOP,15,Miftuh - Hal Ghaxaq - MALTA STOP,14.5148599,35.8492242,Stop_1086,Stop_921,Stop_1086_to_Stop_921
6195,135,Mater Dei - Marsaskala,Combini,Hal Ghaxaq,"Monday, Tuesday, Wednesday, Thursday, Friday",07:04,08:00,09:00,09:56,10:56,11:59,12:59,13:59,15:05,16:08,17:08,18:03,18:57,19:57,20:57,,,,,,,,,,,,,,,,,,,,,,,,,,,,,,,,,,,,,,,,,,,,,,,,,,,,,,,,,,,,,,,,MALTA STOP,15,Combini - Hal Ghaxaq - MALTA STOP,14.5138085,35.8484763,Stop_921,Stop_920,Stop_921_to_Stop_920
6196,135,Mater Dei - Marsaskala,Tumbarella,Hal Ghaxaq,"Monday, Tuesday, Wednesday, Thursday, Friday",07:05,08:00,09:00,09:56,10:56,12:00,13:00,14:00,15:05,16:08,17:08,18:04,18:58,19:58,20:58,,,,,,,,,,,,,,,,,,,,,,,,,,,,,,,,,,,,,,,,,,,,,,,,,,,,,,,,,,,,,,,,MALTA STOP,15,Tumbarella - Hal Ghaxaq - MALTA STOP,14.5154902,35.8473414,Stop_920,Stop_919,Stop_920_to_Stop_919
6197,135,Mater Dei - Marsaskala,Telleritu,Hal Ghaxaq,"Monday, Tuesday, Wednesday, Thursday, Friday",07:06,08:01,09:01,09:57,10:57,12:01,13:01,14:01,15:06,16:09,17:09,18:05,18:58,19:58,20:58,,,,,,,,,,,,,,,,,,,,,,,,,,,,,,,,,,,,,,,,,,,,,,,,,,,,,,,,,,,,,,,,MALTA STOP,15,Telleritu - Hal Ghaxaq - MALTA STOP,14.5183012,35.8477762,Stop_919,Stop_918,Stop_919_to_Stop_918
6198,135,Mater Dei - Marsaskala,Hareb,Hal Ghaxaq,"Monday, Tuesday, Wednesday, Thursday, Friday",07:07,08:02,09:02,09:58,10:58,12:02,13:02,14:02,15:07,16:10,17:10,18:06,18:59,19:59,20:59,,,,,,,,,,,,,,,,,,,,,,,,,,,,,,,,,,,,,,,,,,,,,,,,,,,,,,,,,,,,,,,,MALTA STOP,15,Hareb - Hal Ghaxaq - MALTA STOP,14.5206374,35.8481936,Stop_918,Stop_931,Stop_918_to_Stop_931
6199,135,Mater Dei - Marsaskala,Deheb 6,Bir id-Deheb,"Monday, Tuesday, Wednesday, Thursday, Friday",07:08,08:03,09:03,09:59,10:59,12:03,13:03,14:03,15:09,16:12,17:12,18:07,19:00,20:00,21:00,,,,,,,,,,,,,,,,,,,,,,,,,,,,,,,,,,,,,,,,,,,,,,,,,,,,,,,,,,,,,,,,MALTA STOP,15,Deheb 6 - Bir id-Deheb - MALTA STOP,14.5245589,35.8488817,Stop_931,Stop_64,Stop_931_to_Stop_64
6200,135,Mater Dei - Marsaskala,Tlieta,Iz-Zejtun,"Monday, Tuesday, Wednesday, Thursday, Friday",07:08,08:03,09:03,09:59,10:59,12:03,13:03,14:03,15:09,16:12,17:12,18:07,19:00,20:00,21:00,,,,,,,,,,,,,,,,,,,,,,,,,,,,,,,,,,,,,,,,,,,,,,,,,,,,,,,,,,,,,,,,MALTA STOP,15,Tlieta - Iz-Zejtun - MALTA STOP,14.5257767,35.8491862,Stop_64,Stop_870,Stop_64_to_Stop_870
6201,135,Mater Dei - Marsaskala,Haddiema,Bir id-Deheb,"Monday, Tuesday, Wednesday, Thursday, Friday",07:09,08:04,09:04,10:00,11:00,12:04,13:04,14:04,15:10,16:13,17:13,18:08,19:01,20:01,21:01,,,,,,,,,,,,,,,,,,,,,,,,,,,,,,,,,,,,,,,,,,,,,,,,,,,,,,,,,,,,,,,,MALTA STOP,15,Haddiema - Bir id-Deheb - MALTA STOP,14.5263334,35.8508046,Stop_870,Stop_869,Stop_870_to_Stop_869
6202,135,Mater Dei - Marsaskala,Farrugia,Iz-Zejtun,"Monday, Tuesday, Wednesday, Thursday, Friday",07:10,08:05,09:05,10:01,11:01,12:05,13:05,14:05,15:11,16:14,17:14,18:09,19:02,20:02,21:02,,,,,,,,,,,,,,,,,,,,,,,,,,,,,,,,,,,,,,,,,,,,,,,,,,,,,,,,,,,,,,,,MALTA STOP,15,Farrugia - Iz-Zejtun - MALTA STOP,14.5277611,35.8528526,Stop_869,Stop_867,Stop_869_to_Stop_867
6203,135,Mater Dei - Marsaskala,Diacono,Iz-Zejtun,"Monday, Tuesday, Wednesday, Thursday, Friday",07:12,08:06,09:06,10:02,11:02,12:06,13:06,14:06,15:13,16:16,17:16,18:11,19:03,20:03,21:03,,,,,,,,,,,,,,,,,,,,,,,,,,,,,,,,,,,,,,,,,,,,,,,,,,,,,,,,,,,,,,,,MALTA STOP,15,Diacono - Iz-Zejtun - MALTA STOP,14.530514,35.8543867,Stop_867,Stop_907,Stop_867_to_Stop_907
6204,135,Mater Dei - Marsaskala,Gwiedi,Iz-Zejtun,"Monday, Tuesday, Wednesday, Thursday, Friday",07:13,08:07,09:07,10:03,11:03,12:07,13:07,14:07,15:14,16:17,17:17,18:12,19:04,20:04,21:04,,,,,,,,,,,,,,,,,,,,,,,,,,,,,,,,,,,,,,,,,,,,,,,,,,,,,,,,,,,,,,,,MALTA STOP,15,Gwiedi - Iz-Zejtun - MALTA STOP,14.5329189,35.8549665,Stop_907,Stop_908,Stop_907_to_Stop_908
6205,135,Mater Dei - Marsaskala,Wistin,Iz-Zejtun,"Monday, Tuesday, Wednesday, Thursday, Friday",07:13,08:08,09:08,10:04,11:04,12:08,13:08,14:08,15:14,16:17,17:17,18:12,19:04,20:04,21:04,,,,,,,,,,,,,,,,,,,,,,,,,,,,,,,,,,,,,,,,,,,,,,,,,,,,,,,,,,,,,,,,MALTA STOP,15,Wistin - Iz-Zejtun - MALTA STOP,14.5343026,35.8553677,Stop_908,Stop_909,Stop_908_to_Stop_909
6206,135,Mater Dei - Marsaskala,Isqof,Iz-Zejtun,"Monday, Tuesday, Wednesday, Thursday, Friday",07:15,08:09,09:09,10:05,11:05,12:09,13:09,14:09,15:16,16:19,17:19,18:14,19:05,20:05,21:05,,,,,,,,,,,,,,,,,,,,,,,,,,,,,,,,,,,,,,,,,,,,,,,,,,,,,,,,,,,,,,,,MALTA STOP,15,Isqof - Iz-Zejtun - MALTA STOP,14.5373152,35.8549793,Stop_909,Stop_910,Stop_909_to_Stop_910
6207,135,Mater Dei - Marsaskala,Rumana,Iz-Zejtun,"Monday, Tuesday, Wednesday, Thursday, Friday",07:15,08:09,09:09,10:05,11:05,12:10,13:10,14:10,15:17,16:20,17:20,18:14,19:06,20:06,21:06,,,,,,,,,,,,,,,,,,,,,,,,,,,,,,,,,,,,,,,,,,,,,,,,,,,,,,,,,,,,,,,,MALTA STOP,15,Rumana - Iz-Zejtun - MALTA STOP,14.5391393,35.8563897,Stop_910,Stop_911,Stop_910_to_Stop_911
6208,135,Mater Dei - Marsaskala,Crieki,Iz-Zejtun,"Monday, Tuesday, Wednesday, Thursday, Friday",07:16,08:10,09:10,10:06,11:06,12:11,13:11,14:11,15:17,16:20,17:20,18:15,19:07,20:07,21:07,,,,,,,,,,,,,,,,,,,,,,,,,,,,,,,,,,,,,,,,,,,,,,,,,,,,,,,,,,,,,,,,MALTA STOP,15,Crieki - Iz-Zejtun - MALTA STOP,14.5406896,35.8566657,Stop_911,Stop_912,Stop_911_to_Stop_912
6209,135,Mater Dei - Marsaskala,Huxlief,Iz-Zejtun,"Monday, Tuesday, Wednesday, Thursday, Friday",07:17,08:11,09:11,10:07,11:07,12:11,13:11,14:11,15:18,16:21,17:21,18:16,19:07,20:07,21:07,,,,,,,,,,,,,,,,,,,,,,,,,,,,,,,,,,,,,,,,,,,,,,,,,,,,,,,,,,,,,,,,MALTA STOP,15,Huxlief - Iz-Zejtun - MALTA STOP,14.5415318,35.854344,Stop_912,Stop_69,Stop_912_to_Stop_69
6210,135,Mater Dei - Marsaskala,Tmiem,Iz-Zejtun,"Monday, Tuesday, Wednesday, Thursday, Friday",07:18,08:12,09:12,10:08,11:08,12:12,13:12,14:12,15:20,16:23,17:23,18:17,19:08,20:08,21:08,,,,,,,,,,,,,,,,,,,,,,,,,,,,,,,,,,,,,,,,,,,,,,,,,,,,,,,,,,,,,,,,MALTA STOP,15,Tmiem - Iz-Zejtun - MALTA STOP,14.5437111,35.8559969,Stop_69,Stop_70,Stop_69_to_Stop_70
6211,135,Mater Dei - Marsaskala,Herba,Iz-Zejtun,"Monday, Tuesday, Wednesday, Thursday, Friday",07:19,08:12,09:12,10:08,11:08,12:13,13:13,14:13,15:20,16:23,17:23,18:18,19:09,20:09,21:09,,,,,,,,,,,,,,,,,,,,,,,,,,,,,,,,,,,,,,,,,,,,,,,,,,,,,,,,,,,,,,,,MALTA STOP,15,Herba - Iz-Zejtun - MALTA STOP,14.5459752,35.8567324,Stop_70,Stop_71,Stop_70_to_Stop_71
6212,135,Mater Dei - Marsaskala,Strejnu,Iz-Zejtun,"Monday, Tuesday, Wednesday, Thursday, Friday",07:20,08:14,09:14,10:10,11:10,12:15,13:15,14:15,15:22,16:25,17:25,18:19,19:10,20:10,21:10,,,,,,,,,,,,,,,,,,,,,,,,,,,,,,,,,,,,,,,,,,,,,,,,,,,,,,,,,,,,,,,,MALTA STOP,15,Strejnu - Iz-Zejtun - MALTA STOP,14.5512749,35.855969,Stop_71,Stop_72,Stop_71_to_Stop_72
6213,135,Mater Dei - Marsaskala,Basli,Marsaskala,"Monday, Tuesday, Wednesday, Thursday, Friday",07:21,08:14,09:14,10:10,11:10,12:15,13:15,14:15,15:23,16:26,17:26,18:20,19:11,20:11,21:11,,,,,,,,,,,,,,,,,,,,,,,,,,,,,,,,,,,,,,,,,,,,,,,,,,,,,,,,,,,,,,,,MALTA STOP,15,Basli - Marsaskala - MALTA STOP,14.5537493,35.8562418,Stop_72,Stop_73,Stop_72_to_Stop_73
6214,135,Mater Dei - Marsaskala,Mamo,Marsaskala,"Monday, Tuesday, Wednesday, Thursday, Friday",07:22,08:15,09:15,10:11,11:11,12:16,13:16,14:16,15:24,16:27,17:27,18:21,19:12,20:12,21:12,,,,,,,,,,,,,,,,,,,,,,,,,,,,,,,,,,,,,,,,,,,,,,,,,,,,,,,,,,,,,,,,MALTA STOP,15,Mamo - Marsaskala - MALTA STOP,14.555994,35.8552415,Stop_73,Stop_74,Stop_73_to_Stop_74
6215,135,Mater Dei - Marsaskala,Vahla,Marsaskala,"Monday, Tuesday, Wednesday, Thursday, Friday",07:23,08:16,09:16,10:12,11:12,12:18,13:18,14:18,15:26,16:29,17:29,18:22,19:13,20:13,21:13,,,,,,,,,,,,,,,,,,,,,,,,,,,,,,,,,,,,,,,,,,,,,,,,,,,,,,,,,,,,,,,,MALTA STOP,15,Vahla - Marsaskala - MALTA STOP,14.5605795,35.8566579,Stop_74,Stop_75,Stop_74_to_Stop_75
6216,135,Mater Dei - Marsaskala,Noqra,Marsaskala,"Monday, Tuesday, Wednesday, Thursday, Friday",07:25,08:17,09:17,10:13,11:13,12:19,13:19,14:19,15:27,16:30,17:30,18:24,19:14,20:14,21:14,,,,,,,,,,,,,,,,,,,,,,,,,,,,,,,,,,,,,,,,,,,,,,,,,,,,,,,,,,,,,,,,MALTA STOP,15,Noqra - Marsaskala - MALTA STOP,14.5636308,35.8568415,Stop_75,Stop_76,Stop_75_to_Stop_76
6217,135,Mater Dei - Marsaskala,Baija,Marsaskala,"Monday, Tuesday, Wednesday, Thursday, Friday",07:25,08:18,09:18,10:14,11:14,12:19,13:19,14:19,15:28,16:31,17:31,18:24,19:14,20:14,21:14,,,,,,,,,,,,,,,,,,,,,,,,,,,,,,,,,,,,,,,,,,,,,,,,,,,,,,,,,,,,,,,,MALTA STOP,15,Baija - Marsaskala - MALTA STOP,14.5649676,35.8554204,Stop_76,Stop_77,Stop_76_to_Stop_77
6218,135,Mater Dei - Marsaskala,Mahsel,Marsaskala,"Monday, Tuesday, Wednesday, Thursday, Friday",07:26,08:19,09:19,10:15,11:15,12:20,13:20,14:20,15:28,16:31,17:31,18:25,19:15,20:15,21:15,,,,,,,,,,,,,,,,,,,,,,,,,,,,,,,,,,,,,,,,,,,,,,,,,,,,,,,,,,,,,,,,MALTA STOP,15,Mahsel - Marsaskala - MALTA STOP,14.5668009,35.8555777,Stop_77,Stop_78,Stop_77_to_Stop_78
6219,135,Mater Dei - Marsaskala,Qaws,Marsaskala,"Monday, Tuesday, Wednesday, Thursday, Friday",07:27,08:20,09:20,10:16,11:16,12:21,13:21,14:21,15:30,16:33,17:33,18:26,19:16,20:16,21:16,,,,,,,,,,,,,,,,,,,,,,,,,,,,,,,,,,,,,,,,,,,,,,,,,,,,,,,,,,,,,,,,MALTA STOP,15,Qaws - Marsaskala - MALTA STOP,14.5689252,35.8581744,Stop_78,Stop_79,Stop_78_to_Stop_79
6220,135,Mater Dei - Marsaskala,Ashby,Marsaskala,"Monday, Tuesday, Wednesday, Thursday, Friday",07:28,08:20,09:20,10:16,11:16,12:22,13:22,14:22,15:30,16:33,17:33,18:27,19:16,20:16,21:16,,,,,,,,,,,,,,,,,,,,,,,,,,,,,,,,,,,,,,,,,,,,,,,,,,,,,,,,,,,,,,,,MALTA STOP,15,Ashby - Marsaskala - MALTA STOP,14.5693463,35.8591505,Stop_79,Stop_80,Stop_79_to_Stop_80
6221,135,Mater Dei - Marsaskala,Xedha,Marsaskala,"Monday, Tuesday, Wednesday, Thursday, Friday",07:28,08:20,09:20,10:16,11:16,12:22,13:22,14:22,15:31,16:34,17:34,18:27,19:17,20:17,21:17,,,,,,,,,,,,,,,,,,,,,,,,,,,,,,,,,,,,,,,,,,,,,,,,,,,,,,,,,,,,,,,,MALTA STOP,15,Xedha - Marsaskala - MALTA STOP,14.5698814,35.8607775,Stop_80,Stop_81,Stop_80_to_Stop_81
